[
  {
    "id": 1,
    "name": "Mensa UniCampus Magdeburg",
    "city": "Magdeburg",
    "address": "Pfälzer Str. 1, 39106 Magdeburg",
    "coordinates": [52.139618827301895, 11.647599935531616]
  },
  {
    "id": 2,
    "name": "Magdeburg Herrenkurg",
    "city": "Magdeburg",
    "address": "Breitscheidstr. 2, 39114 Magdeburg",
    "coordinates": [52.14006658530411, 11.67566657066345]
  },
  {
    "id": 3,
    "name": "Mensa Stendal",
    "city": "Stendal",
    "address": "Osterburger Str. 25, 39567 Stendal",
    "coordinates": [52.615015758022146, 11.849302053451538]
  },
  {
    "id": 4,
    "name": "Mensa Wernigerode",
    "city": "Wernigerode",
    "address": "Friedrichstraße 57 – 59,  38855 Wernigerode",
    "coordinates": [51.8257591770436, 10.760003328323364]
  },
  {
    "id": 5,
    "name": "DomCafete Halberstadt",
    "city": "Halberstadt",
    "address": "Am Domplatz 16,  38820 Halberstadt",
    "coordinates": [51.89534754646133, 11.047461032867432]
  },
  {
    "id": 6,
    "name": "Hannover Hauptmensa",
    "city": "Hannover",
    "address": "Callinstraße 23, 30167 Hannover",
    "coordinates": [52.38620852444954, 9.714059829711914]
  },
  {
    "id": 7,
    "name": "Hannover, Contine",
    "city": "Hannover",
    "address": "Königsworther Platz 1, 30167 Hannover",
    "coordinates": [52.3791768, 9.723882099999999]
  },
  {
    "id": 8,
    "name": "Mensa PZH",
    "city": "Garbsen",
    "address": "An der Universität 2, 30823 Garbsen",
    "coordinates": [52.42584657412015, 9.618701934814453]
  },
  {
    "id": 9,
    "name": "Mensa Caballus",
    "city": "Hannover",
    "address": "Bischofsholer Damm 15, 30173 Hannover",
    "coordinates": [52.36893, 9.76545]
  },
  {
    "id": 10,
    "name": "Mensa TiHo-Tower",
    "city": "Hannover",
    "address": "Bünteweg 2, 30559 Hannover",
    "coordinates": [52.35441215028723, 9.797573089599608]
  },
  {
    "id": 11,
    "name": "Mensa HMTMH",
    "city": "Hannover",
    "address": "Emmichplatz 1, 30175 Hannover",
    "coordinates": [52.3773, 9.75419]
  },
  {
    "id": 12,
    "name": "Mensa Ricklinger Stadtweg",
    "city": "Hannover",
    "address": "Ricklinger Stadtweg 120 30459 Hannover",
    "coordinates": [52.35317363318381, 9.723544120788574]
  },
  {
    "id": 13,
    "name": "Hannover, Mensa/Cafeteria Blumhardtstraße",
    "city": "Hannover",
    "address": "Blumhardtstraße 2, 30625 Hannover",
    "coordinates": [52.373031593389626, 9.805866479873657]
  },
  {
    "id": 14,
    "name": "Hannover, Mensa Große Pause",
    "city": "Hannover",
    "address": "Expo Plaza 10, 30539 Hannover",
    "coordinates": [52.3219941, 9.8186431]
  },
  {
    "id": 15,
    "name": "Hannover, Cafeteria Herrenhausen",
    "city": "Hannover",
    "address": "Herrenhäuser Straße 8, 30419 Hannover",
    "coordinates": [52.39288999999999, 9.695969999999999]
  },
  {
    "id": 16,
    "name": "Hannover Hauptmensa Marktstand",
    "city": "Hannover",
    "address": "Callinstraße 23, 30167 Hannover",
    "coordinates": [52.386581769891826, 9.714478254318237]
  },
  {
    "id": 17,
    "name": "Hannover, Restaurant c. t.",
    "city": "Hannover",
    "address": "Callinstraße 23, 30167 Hannover",
    "coordinates": [52.38665379935076, 9.714263677597046]
  },
  {
    "id": 31,
    "name": "Karlsruhe, Mensa Am Adenauerring",
    "city": "Karlsruhe",
    "address": "Adenauerring 7, 76131 Karlsruhe",
    "coordinates": [49.01140830621927, 8.416922092437744]
  },
  {
    "id": 32,
    "name": "Karlsruhe, Mensa Moltke",
    "city": "Karlsruhe",
    "address": "Moltkestraẞe, Karlsruhe",
    "coordinates": [49.01481416420907, 8.39406967163086]
  },
  {
    "id": 33,
    "name": "Karlsruhe, Mensa Erzbergerstraße",
    "city": "Karlsruhe",
    "address": "Erzbergerstraße 121, 76133 Karlsruhe",
    "coordinates": [49.026824286827654, 8.385658264160156]
  },
  {
    "id": 34,
    "name": "Karlsruhe, Mensa Schloss Gottesaue",
    "city": "Karlsruhe",
    "address": "Am Schloss Gottesaue, 76131 Karlsruhe",
    "coordinates": [49.00451847204745, 8.427790403366089]
  },
  {
    "id": 35,
    "name": "Pforzheim, Mensa Tiefenbronner Straße",
    "city": "Pforzheim",
    "address": "Tiefenbronner Straße/K9800, 75175 Pforzheim",
    "coordinates": [48.878306332678825, 8.716846704483032]
  },
  {
    "id": 39,
    "name": "Pforzheim, Mensa Holzgartenstraße",
    "city": "Pforzheim",
    "address": "Holzgartenstraße, 75175 Pforzheim",
    "coordinates": [48.88792264330292, 8.707630634307861]
  },
  {
    "id": 55,
    "name": "Mensa Am Neuen Palais",
    "city": "Potsdam",
    "address": "Am Neuen Palais 10, Haus 12, 14469 Potsdam",
    "coordinates": [52.399, 13.01494]
  },
  {
    "id": 57,
    "name": "Mensa Kiepenheuerallee",
    "city": "Potsdam",
    "address": "Kiepenheuerallee 5, 14469 Potsdam",
    "coordinates": [52.41384306852332, 13.051575422286987]
  },
  {
    "id": 58,
    "name": "Mensa Wildau",
    "city": "Wildau",
    "address": "Bahnhofstr. 1, 15745 Wildau",
    "coordinates": [52.31816298649385, 13.631898164749146]
  },
  {
    "id": 59,
    "name": "Mensa Brandenburg",
    "city": "Brandenburg",
    "address": "Magdeburger Straße 50, 14770 Brandenburg an der Havel",
    "coordinates": [52.411935424011155, 12.536709308624268]
  },
  {
    "id": 61,
    "name": "Mensa Golm",
    "city": "Potsdam",
    "address": "Karl-Liebknecht-Str. 24/25, 14476 Potsdam OT Golm",
    "coordinates": [52.40791044877864, 12.978951930999754]
  },
  {
    "id": 62,
    "name": "Mensa Griebnitzsee",
    "city": "Potsdam",
    "address": "August-Bebel-Str. 89, 14482 Potsdam",
    "coordinates": [52.39353534469226, 13.127814531326294]
  },
  {
    "id": 63,
    "name": "Leipzig, Mensa am Park",
    "city": "Leipzig",
    "address": "Universitätsstraße 5, 04109 Leipzig",
    "coordinates": [51.337462257667475, 12.378126382827759]
  },
  {
    "id": 64,
    "name": "Leipzig, Mensa Academica",
    "city": "Leipzig",
    "address": "Karl-Liebknecht-Straße, 145 04277 Leipzig",
    "coordinates": [51.31321, 12.373709999999999]
  },
  {
    "id": 65,
    "name": "Leipzig, Mensa Am Elsterbecken",
    "city": "Leipzig",
    "address": "Marschnerstraße 29c, 04109 Leipzig",
    "coordinates": [51.33860169398093, 12.354791164398193]
  },
  {
    "id": 66,
    "name": "Leipzig, Mensa An den Tierkliniken",
    "city": "Leipzig",
    "address": "An den Tierkliniken 5, 04103 Leipzig",
    "coordinates": [51.319690089033074, 12.392503023147581]
  },
  {
    "id": 67,
    "name": "Leipzig, Mensa Liebigstraße",
    "city": "Leipzig",
    "address": "Liebigstraße 25, 04103 Leipzig",
    "coordinates": [51.33152332523419, 12.389799356460571]
  },
  {
    "id": 68,
    "name": "Leipzig, Mensa Peterssteinweg",
    "city": "Leipzig",
    "address": "Straße des 17. Juni 2a, 04107 Leipzig",
    "coordinates": [51.33307851507541, 12.373255491256714]
  },
  {
    "id": 69,
    "name": "Leipzig, Mensa/Cafetaria Schönauer Straße",
    "city": "Leipzig",
    "address": "Schönauer Straße 113, 04207 Leipzig",
    "coordinates": [51.31130105668432, 12.308206558227539]
  },
  {
    "id": 70,
    "name": "Leipzig, Cafeteria Dittrichring",
    "city": "Leipzig",
    "address": "Dittrichring 21, 04109 Leipzig",
    "coordinates": [51.34128931096995, 12.369639873504639]
  },
  {
    "id": 72,
    "name": "Leipzig, Cafeteria Philipp-Rosenthal-Straße",
    "city": "Leipzig",
    "address": "Philipp-Rosenthal-Straße 33, 04103 Leipzig",
    "coordinates": [51.32732002668829, 12.390249967575073]
  },
  {
    "id": 74,
    "name": "Mensa Philosophenweg",
    "city": "Jena",
    "address": "Philosophenweg 20, 07743 Jena, Germany",
    "coordinates": [50.93230676956965, 11.584439277648926]
  },
  {
    "id": 75,
    "name": "Mensa Ernst-Abbe-Platz",
    "city": "Jena",
    "address": "Ernst-Abbe-Platz 8, 07743 Jena, Germany",
    "coordinates": [50.92872968132924, 11.58258318901062]
  },
  {
    "id": 76,
    "name": "Mensa Carl-Zeiss-Promenade",
    "city": "Jena",
    "address": "Carl-Zeiss-Promenade 6, 07745 Jena, Germany",
    "coordinates": [50.91647488567261, 11.566715240478516]
  },
  {
    "id": 78,
    "name": "Dresden, Zeltschloesschen",
    "city": "Dresden",
    "address": "Nürnberger Straße 55, 01187 Dresden, Deutschland",
    "coordinates": [51.03155355, 13.7286415224337]
  },
  {
    "id": 79,
    "name": "Dresden, Alte Mensa",
    "city": "Dresden",
    "address": "Mommsenstr. 13, 01069 Dresden, Deutschland",
    "coordinates": [51.02694203447925, 13.726483583450317]
  },
  {
    "id": 80,
    "name": "Dresden, Mensa Matrix",
    "city": "Dresden",
    "address": "Reichenbachstr. 1, 01069 Dresden, Deutschland",
    "coordinates": [51.0340605791208, 13.734036684036255]
  },
  {
    "id": 81,
    "name": "Dresden, Mensologie",
    "city": "Dresden",
    "address": "Blasewitzer Str. 84, 01307 Dresden, Deutschland",
    "coordinates": [51.05263112072602, 13.78432273864746]
  },
  {
    "id": 82,
    "name": "Dresden, Mensa Siedepunkt",
    "city": "Dresden",
    "address": "Zellescher Weg 17, 01069 Dresden, Deutschland",
    "coordinates": [51.02950281223138, 13.738521388826587]
  },
  {
    "id": 83,
    "name": "Tharandt, Mensa TellerRandt",
    "city": "Tharandt",
    "address": "Piennerstr. 15, 01737 Tharandt",
    "coordinates": [50.9804219349962, 13.581375729352116]
  },
  {
    "id": 84,
    "name": "Dresden, Mensa Palucca Hochschule",
    "city": "Dresden",
    "address": "Basteiplatz 4, 01277 Dresden",
    "coordinates": [51.02907, 13.77088]
  },
  {
    "id": 85,
    "name": "Dresden, Mensa WUeins",
    "city": "Dresden",
    "address": "Teplitzer Straße, 01217 Dresden",
    "coordinates": [51.029830068757555, 13.748949766159058]
  },
  {
    "id": 86,
    "name": "Dresden, Mensa Stimm-Gabel",
    "city": "Dresden",
    "address": "Wettiner Platz 13, 01067 Dresden",
    "coordinates": [51.05359, 13.72512]
  },
  {
    "id": 87,
    "name": "Dresden, Mensa Johannstadt",
    "city": "Dresden",
    "address": "Marschnerstraße 38, 01307 Dresden",
    "coordinates": [51.0517855, 13.7596818]
  },
  {
    "id": 88,
    "name": "Dresden, Mensa U-Boot",
    "city": "Dresden",
    "address": "George-Bähr-Straße/Hettnerstraße 3, 01069 Dresden",
    "coordinates": [51.030302393690185, 13.729278384304424]
  },
  {
    "id": 89,
    "name": "Zittau, Mensa Kraatschn",
    "city": "Zittau / Sachsen",
    "address": "Hochwaldstr. 12, 02763 Zittau",
    "coordinates": [50.89029752176493, 14.804506205659731]
  },
  {
    "id": 90,
    "name": "Zittau, Mensa Mahlwerk",
    "city": "Zittau / Sachsen",
    "address": "Schwenninger Weg 1, 02763 Zittau",
    "coordinates": [50.88407747332545, 14.801866982550518]
  },
  {
    "id": 91,
    "name": "Dresden, Mensa Sport",
    "city": "Dresden",
    "address": "Messering 2a, 01067 Dresden",
    "coordinates": [51.06825, 13.719]
  },
  {
    "id": 93,
    "name": "Aachen, Forum Cafete",
    "city": "Aachen",
    "address": "Eilfschornsteinstraße 15, 52072 Aachen",
    "coordinates": [50.77667631568813, 6.0797202587127686]
  },
  {
    "id": 94,
    "name": "Aachen, Bistro Templergraben",
    "city": "Aachen",
    "address": "Templergraben 55, 52062 Aachen",
    "coordinates": [50.77784320464118, 6.078239679336547]
  },
  {
    "id": 95,
    "name": "Aachen, Mensa Ahorn",
    "city": "Aachen",
    "address": "Ahornstr. 55, 52074 Aachen",
    "coordinates": [50.779437453530264, 6.059550046920776]
  },
  {
    "id": 96,
    "name": "Aachen, Mensa Vita",
    "city": "Aachen",
    "address": "Helmertweg 1, 52074 Aachen",
    "coordinates": [50.77845377446704, 6.047630310058594]
  },
  {
    "id": 97,
    "name": "Aachen, Mensa Bayernallee",
    "city": "Aachen",
    "address": "Bayernallee 9, 52066 Aachen",
    "coordinates": [50.75570127243687, 6.096993684768677]
  },
  {
    "id": 98,
    "name": "Aachen, Mensa EUPS",
    "city": "Aachen",
    "address": "Eupener Str. 70, 52066 Aachen",
    "coordinates": [50.75947489522681, 6.082338094711304]
  },
  {
    "id": 99,
    "name": "Aachen, Gastro Goethe",
    "city": "Aachen",
    "address": "Goethestr. 3, 52064 Aachen",
    "coordinates": [50.76401505602129, 6.080052852630615]
  },
  {
    "id": 100,
    "name": "Mensa Jülich",
    "city": "Jülich",
    "address": "Heinrich-Mußmann-Str. 1, 52428 Jülich",
    "coordinates": [50.93570779114204, 6.373368501663208]
  },
  {
    "id": 102,
    "name": "Bamberg, Mensa Feldkirchenstraße",
    "city": "Bamberg",
    "address": "Feldkirchenstraße 21, 96052 Bamberg",
    "coordinates": [49.90763, 10.90466]
  },
  {
    "id": 103,
    "name": "Mensa Aschaffenburg",
    "city": "Aschaffenburg",
    "address": "Würzburger Straße 45, 63743 Aschaffenburg",
    "coordinates": [49.97140799680852, 9.16157841682434]
  },
  {
    "id": 105,
    "name": "Mensa Schweinfurt",
    "city": "Schweinfurt",
    "address": "Fritz-Drescher-Straße, 97421 Schweinfurt",
    "coordinates": [50.0435954, 10.2127468]
  },
  {
    "id": 106,
    "name": "Würzburg, Mensa Burse",
    "city": "Würzburg",
    "address": "Am Studentenhaus 1, 97072 Würzburg",
    "coordinates": [49.78589153344547, 9.933936595916748]
  },
  {
    "id": 109,
    "name": "Würzburg, Mensa am Studentenhaus",
    "city": "Würzburg",
    "address": "Am Studentenhaus 1, 97070 Würzburg",
    "coordinates": [49.78569757629146, 9.934473037719727]
  },
  {
    "id": 110,
    "name": "Würzburg, Mensa Augenklinik",
    "city": "Würzburg",
    "address": "Röntgenring 12, 97070 Würzburg",
    "coordinates": [49.799480454673024, 9.927273988723755]
  },
  {
    "id": 111,
    "name": "Würzburg, Mensa Josef-Schneider-Straße ",
    "city": "Würzburg",
    "address": "Josef-Schneider-Straße 9E, 97080 Würzburg",
    "coordinates": [49.80235, 9.95462]
  },
  {
    "id": 112,
    "name": "Ulf's Café (HPI Cafeteria)",
    "city": "Potsdam",
    "address": "Prof.-Dr.-Helmert-Str. 2-3, 14482 Potsdam, Germany",
    "coordinates": [52.39329310108751, 13.131183385848999]
  },
  {
    "id": 113,
    "name": "Marburg, Mensa Erlenring",
    "city": "Marburg",
    "address": "Erlenring, 35037 Marburg",
    "coordinates": [50.80826701522571, 8.776381015777588]
  },
  {
    "id": 114,
    "name": "Marburg, Mensa Lahnberge",
    "city": "Marburg",
    "address": "Conradistraße, 35043 Marburg",
    "coordinates": [50.81302614961098, 8.8070547580719]
  },
  {
    "id": 115,
    "name": "Marburg, Philipps Bistro",
    "city": "Marburg",
    "address": "Erlenring, 35037 Marburg",
    "coordinates": [50.8072421, 8.7765003]
  },
  {
    "id": 116,
    "name": "Marburg, Mo's Diner",
    "city": "Marburg",
    "address": "Hans-Meerwein-Straße, 35043 Marburg ",
    "coordinates": [50.80904667871219, 8.81076693534851]
  },
  {
    "id": 117,
    "name": "Hamburg, Mensa Armgartstraße",
    "city": "Hamburg",
    "address": "Armgartstraße 24, 22087 Hamburg",
    "coordinates": [53.5652392, 10.0224859]
  },
  {
    "id": 118,
    "name": "Hamburg, Mensa Bergedorf",
    "city": "Hamburg",
    "address": "Lohbrügger Kirchstraße 65, 21033 Hamburg",
    "coordinates": [53.493803, 10.199175]
  },
  {
    "id": 119,
    "name": "Hamburg, Mensa Berliner Tor",
    "city": "Hamburg",
    "address": "Berliner Tor 7, 20099 Hamburg",
    "coordinates": [53.557008396861626, 10.023329257965088]
  },
  {
    "id": 121,
    "name": "Hamburg, Mensa Botanischer Garten",
    "city": "Hamburg",
    "address": "Ohnhorstraße 18, 22609 Hamburg",
    "coordinates": [53.55982524502774, 9.858319759368896]
  },
  {
    "id": 122,
    "name": "Hamburg, Mensa Bucerius Law School",
    "city": "Hamburg",
    "address": " Jungiusstraße 6, 20355 Hamburg",
    "coordinates": [53.559493860860336, 9.98255968093872]
  },
  {
    "id": 123,
    "name": "Hamburg, Café Jungiusstraße",
    "city": "Hamburg",
    "address": "Jungiusstraße 9, 20355 Hamburg",
    "coordinates": [53.55859528688259, 9.98156189918518]
  },
  {
    "id": 124,
    "name": "Hamburg, Café Alexanderstraße",
    "city": "Hamburg",
    "address": "Alexanderstraße 1, 20099 Hamburg ",
    "coordinates": [53.55490649999999, 10.0185161]
  },
  {
    "id": 125,
    "name": "Hamburg, Mensa Campus",
    "city": "Hamburg",
    "address": "Von-Melle-Park 5, 20146 Hamburg",
    "coordinates": [53.56575785690514, 9.985939264297485]
  },
  {
    "id": 127,
    "name": "Hamburg, Mensa Finkenau",
    "city": "Hamburg",
    "address": "Finkenau 35, 22081 Hamburg",
    "coordinates": [53.569727, 10.034096]
  },
  {
    "id": 128,
    "name": "Hamburg, Mensa Geomatikum",
    "city": "Hamburg",
    "address": "Bundesstraße 55, 20146 Hamburg ",
    "coordinates": [53.56816999999999, 9.974219999999999]
  },
  {
    "id": 129,
    "name": "Hamburg, Mensa Harburg   ",
    "city": "Hamburg",
    "address": "Denickestraße 22,  21073 Hamburg",
    "coordinates": [53.46112, 9.969249999999999]
  },
  {
    "id": 130,
    "name": "Hamburg, Mensa Philosophenturm",
    "city": "Hamburg",
    "address": "Von-Melle-Park 6, 20146 Hamburg",
    "coordinates": [53.5670258367962, 9.985038042068481]
  },
  {
    "id": 131,
    "name": "Hamburg, Mensa Stellingen",
    "city": "Hamburg",
    "address": "Vogt-Kölln-Straße 30, 22527 Hamburg ",
    "coordinates": [53.59934999999999, 9.93191]
  },
  {
    "id": 132,
    "name": "Hamburg, Mensa Studierendenhaus",
    "city": "Hamburg",
    "address": "Von-Melle-Park 2, 20146 Hamburg ",
    "coordinates": [53.56568, 9.9862]
  },
  {
    "id": 133,
    "name": "Mensa Leopoldstraße",
    "city": "München",
    "address": "Leopoldstraße 13a, München ",
    "coordinates": [48.1564026393375, 11.582057476043701]
  },
  {
    "id": 134,
    "name": "Mensa Martinsried",
    "city": "München",
    "address": "Großhaderner Straße 6, Planegg-Martinsried ",
    "coordinates": [48.1090332, 11.4532863]
  },
  {
    "id": 136,
    "name": "StuBistro Schellingstraße",
    "city": "München",
    "address": "Schellingstr. 3, München",
    "coordinates": [48.1493011, 11.5790907]
  },
  {
    "id": 137,
    "name": "StuBistro Goethestraße",
    "city": "München",
    "address": "Goethestr. 70, München ",
    "coordinates": [48.131811762020284, 11.558164358139038]
  },
  {
    "id": 138,
    "name": "Mensa Arcisstraße",
    "city": "München",
    "address": "Arcisstr. 17, München",
    "coordinates": [48.14742, 11.56722]
  },
  {
    "id": 139,
    "name": "Mensa Garching",
    "city": "Garching b.München",
    "address": "Lichtenbergstr. 2, Garching ",
    "coordinates": [48.26736932004083, 11.671160459518433]
  },
  {
    "id": 140,
    "name": "Mensa Weihenstephan",
    "city": "Freising",
    "address": "Am Forum 3, Freising",
    "coordinates": [48.39831, 11.72344]
  },
  {
    "id": 141,
    "name": "Mensa Lothstraße",
    "city": "München",
    "address": "Lothstr. 13 d, München ",
    "coordinates": [48.1533615, 11.5517815]
  },
  {
    "id": 142,
    "name": "Mensa Pasing",
    "city": "München",
    "address": "Am Stadtpark 20, München",
    "coordinates": [48.141570774769974, 11.450554132461548]
  },
  {
    "id": 144,
    "name": "StuCafé in der Mensa Garching",
    "city": "Garching b.München",
    "address": "Lichtenbergstr. 2, Garching",
    "coordinates": [48.26738360345558, 11.670377254486084]
  },
  {
    "id": 145,
    "name": "StuCafé Akademie Weihenstephan",
    "city": "Freising",
    "address": "Alte Akademie 1, Freising",
    "coordinates": [48.394786024915206, 11.729380039368356]
  },
  {
    "id": 146,
    "name": "StuCafé Boltzmannstraße",
    "city": "Garching b.München",
    "address": "Boltzmannstr. 15, Garching ",
    "coordinates": [48.26571955877954, 11.667770147323608]
  },
  {
    "id": 147,
    "name": "Mensa Nordhäuser Straße",
    "city": "Erfurt",
    "address": "Nordhäuser Straße + 63, 99089 + Erfurt, Deutschland",
    "coordinates": [50.989367704946844, 11.014244556427]
  },
  {
    "id": 148,
    "name": "Mensa Altonaer Straße",
    "city": "Erfurt",
    "address": "Altonaer Straße 25, 99089 Erfurt, Deutschland",
    "coordinates": [50.9850134, 11.0427588964954]
  },
  {
    "id": 149,
    "name": "NANOteria",
    "city": "Ilmenau",
    "address": "Gustav-Kirchhoff-Str. + 5, 98693 + Ilmenau, Deutschland",
    "coordinates": [50.68380186313215, 10.940794944763184]
  },
  {
    "id": 150,
    "name": "Mensa Ehrenberg",
    "city": "Ilmenau",
    "address": "Max-Planck-Ring + 1, 98693 + Ilmenau, Deutschland",
    "coordinates": [50.68262583133858, 10.933789014816284]
  },
  {
    "id": 151,
    "name": "Mensa am Park",
    "city": "Weimar",
    "address": "Marienstr. + 15b, 99423 + Weimar, Deutschland",
    "coordinates": [50.97533197150808, 11.330809593200684]
  },
  {
    "id": 152,
    "name": "Mensa Berufsakademie Gera ",
    "city": "Gera",
    "address": "Weg der Freundschaft, 07546 + Gera, Deutschland",
    "coordinates": [50.903425, 12.070735]
  },
  {
    "id": 153,
    "name": "Mensa 1 (Mittag)",
    "city": "Braunschweig",
    "address": "Katharinenstr. 1, 38106 Braunschweig",
    "coordinates": [52.27467662468465, 10.526061058044434]
  },
  {
    "id": 154,
    "name": "Mensa 1 (Abend)",
    "city": "Braunschweig",
    "address": "Katharinenstr. 1, 38106 Braunschweig",
    "coordinates": [52.2746239, 10.5265772203059]
  },
  {
    "id": 155,
    "name": "Mensa 2",
    "city": "Braunschweig",
    "address": "Beethovenstraße 15, 38106 Braunschweig",
    "coordinates": [52.2801204, 10.5440898]
  },
  {
    "id": 156,
    "name": "Kantina Kreativa",
    "city": "Braunschweig",
    "address": "Johannes-Selenka-Platz 1, 38118 Braunschweig",
    "coordinates": [52.2576831, 10.5034393170219]
  },
  {
    "id": 157,
    "name": "Magdeburg, Mensa UniCampus Oben",
    "city": "Magdeburg",
    "address": "Pfälzer Str. 1, 39106 Magdeburg, Deutschland",
    "coordinates": [52.13958590374171, 11.647599935531616]
  },
  {
    "id": 158,
    "name": "Mensa Clausthal",
    "city": "Clausthal-Zellerfeld",
    "address": "Leibnizstr. 3, 38678 Clausthal-Zellerfeld, Deutschland",
    "coordinates": [51.799753, 10.3516566]
  },
  {
    "id": 159,
    "name": "Mensa Universität",
    "city": "Hildesheim",
    "address": "Universitätsplatz 1, 31141 Hildesheim",
    "coordinates": [52.13362345, 9.97594376214166]
  },
  {
    "id": 160,
    "name": "Mensa Hohnsen (HAWK)",
    "city": "Hildesheim",
    "address": "Hohnsen 1, 31134 Hildesheim",
    "coordinates": [52.14364515, 9.95883546613537]
  },
  {
    "id": 161,
    "name": "Bistro-Shop Lübecker Straße",
    "city": "Hildesheim",
    "address": "Lübecker Straße 3, 31141 Hildesheim",
    "coordinates": [52.1366129, 9.9636546]
  },
  {
    "id": 162,
    "name": "Mensa HAWK",
    "city": "Holzminden",
    "address": "Haarmannplatz 3, 37603 Holzminden, Deutschland",
    "coordinates": [51.8272784, 9.4504558]
  },
  {
    "id": 163,
    "name": "Mensa Campus",
    "city": "Lüneburg",
    "address": "Scharnhorststrasse 1, 21335 Lüneburg",
    "coordinates": [53.22778425, 10.4041636186719]
  },
  {
    "id": 165,
    "name": "Mensa Suderburg",
    "city": "Suderburg",
    "address": "Herbert-Meyer-Str. 7, 29556 Suderburg, Deutschland",
    "coordinates": [52.8986961, 10.4470473]
  },
  {
    "id": 166,
    "name": "Mensa Ostfalia",
    "city": "Wolfenbüttel",
    "address": "Salzdahlumer Str. 46/48, 38302 Wolfenbüttel, Deutschland",
    "coordinates": [52.17599765019241, 10.549267530441284]
  },
  {
    "id": 167,
    "name": "Uni Mensa",
    "city": "Bremen",
    "address": "Leobener Straße 3, 28359 Bremen, Germany",
    "coordinates": [53.10801533493082, 8.851000070571898]
  },
  {
    "id": 168,
    "name": "Mensa Neustadtswall",
    "city": "Bremen",
    "address": "Neustadtswall 33, 28199 Bremen, Germany",
    "coordinates": [53.07283522613672, 8.793203830718994]
  },
  {
    "id": 169,
    "name": "Mensa Werderstrasse",
    "city": "Bremen",
    "address": "Werderstrasse 73, 28199 Bremen",
    "coordinates": [53.069692746347016, 8.806502223014832]
  },
  {
    "id": 170,
    "name": "Mensa am Airport",
    "city": "Bremen",
    "address": "Flughafenallee 10, 28199 Bremen, Germany",
    "coordinates": [53.0551731, 8.78341777303855]
  },
  {
    "id": 171,
    "name": "Mensa Bremerhaven",
    "city": "Bremerhaven",
    "address": "An der Karlstadt 8, 27568 Bremerhaven, Germany",
    "coordinates": [53.53945941659496, 8.582746982574461]
  },
  {
    "id": 172,
    "name": "Cafeteria GW2",
    "city": "Bremen",
    "address": "Enrique-Schmidt-Straße, 28359 Bremen, Germany",
    "coordinates": [53.10737126912262, 8.8539719581604]
  },
  {
    "id": 178,
    "name": "360 Grad",
    "city": "Braunschweig",
    "address": "Katharinenstr. 1, 38106 Braunschweig, Germany",
    "coordinates": [52.27480135427685, 10.526554584503174]
  },
  {
    "id": 179,
    "name": "Göttingen, Zentralmensa",
    "city": "Göttingen",
    "address": "Platz der Göttinger Sieben 4, Göttingen",
    "coordinates": [51.5419691, 9.93475312364836]
  },
  {
    "id": 180,
    "name": "Göttingen, Nordmensa",
    "city": "Göttingen",
    "address": "Grisebachstraße 10, Göttingen",
    "coordinates": [51.5582308, 9.95124557772739]
  },
  {
    "id": 182,
    "name": "Göttingen, Mensa Italia",
    "city": "Göttingen",
    "address": "Roedererstrasse 15a, Göttingen",
    "coordinates": [51.54361405, 9.9460498906231]
  },
  {
    "id": 183,
    "name": "Göttingen, Bistro HAWK",
    "city": "Göttingen",
    "address": "Von-Ossietzky-Straße 99, Göttingen",
    "coordinates": [51.52183530406683, 9.969781637191772]
  },
  {
    "id": 184,
    "name": "Hamburg, Cafe am Mittelweg",
    "city": "Hamburg",
    "address": "Mittelweg 177, 20148 Hamburg",
    "coordinates": [53.564464350812784, 9.994951486587524]
  },
  {
    "id": 185,
    "name": "Hamburg, Cafe CFEl",
    "city": "Hamburg",
    "address": "Notkestrasse 85, 22607 Hamburg",
    "coordinates": [53.57218019782744, 9.880560636520386]
  },
  {
    "id": 186,
    "name": "Hamburg, Mensa HCU",
    "city": "Hamburg",
    "address": "Überseeallee 16, 20457 Hamburg",
    "coordinates": [53.54019895, 10.0047980912567]
  },
  {
    "id": 187,
    "name": "Aachen, Mensa Academica",
    "city": "Aachen",
    "address": "Pontwall 3, 52062 Aachen, Germany",
    "coordinates": [50.7816791, 6.07641034479823]
  },
  {
    "id": 188,
    "name": "Kochwerk Elbe",
    "city": "Hamburg",
    "address": "Wandsbeker Straße 3-7, 22179 Hamburg",
    "coordinates": [53.60070576980124, 10.07396936416626]
  },
  {
    "id": 193,
    "name": "Konstanz, HTWG",
    "city": "Konstanz",
    "address": "Brauneggerstraße 55, 78462 Konstanz",
    "coordinates": [47.66813294880924, 9.170236587524414]
  },
  {
    "id": 194,
    "name": "Mensa UNI Regensburg",
    "city": "Regensburg",
    "address": "Albertus-Magnus-Str. 2, 93051 Regensburg, Germany",
    "coordinates": [48.99805706684204, 12.092599868774412]
  },
  {
    "id": 195,
    "name": "Mensa OTH Regensburg",
    "city": "Regensburg",
    "address": "Seybothstraße, 93006 Regensburg, Germany",
    "coordinates": [49.003596470946974, 12.095990180969238]
  },
  {
    "id": 196,
    "name": "Mensa UNI Passau",
    "city": "Passau",
    "address": "Innstraße 29, 94032 Passau, Germany",
    "coordinates": [48.56754877257058, 13.453037738800049]
  },
  {
    "id": 197,
    "name": "Mensa HS Landshut",
    "city": "Landshut",
    "address": "Am Lurzenhof 1, 84036 Landshut, Germany",
    "coordinates": [48.555974996812544, 12.196787595748901]
  },
  {
    "id": 198,
    "name": "Mensa TH Deggendorf",
    "city": "Deggendorf",
    "address": "Edlmairstraße 6-8, 94469 Deggendorf, Germany",
    "coordinates": [48.83013347740409, 12.954103946685791]
  },
  {
    "id": 199,
    "name": "Kochwerk Alster",
    "city": "Hamburg",
    "address": "Wandsbeker Straße 3-7, 22179 Hamburg",
    "coordinates": [53.60103683105782, 10.070847272872925]
  },
  {
    "id": 200,
    "name": "Dresden, Mensa Brühl",
    "city": "Dresden",
    "address": "Brühlsche Terrasse 1, 01067 Dresden",
    "coordinates": [51.0530039, 13.7419394]
  },
  {
    "id": 201,
    "name": "Mensa NW 1",
    "city": "Bremen",
    "address": "Otto-Hahn-Allee, 28359 Bremen, Germany",
    "coordinates": [53.10364193848922, 8.850656747817993]
  },
  {
    "id": 202,
    "name": "Mensa Rüsselsheim",
    "city": "Rüsselsheim am Main",
    "address": "Am Brückweg 26, 65428 Rüsselsheim, Germany",
    "coordinates": [49.9852611, 8.4250932]
  },
  {
    "id": 203,
    "name": "Uni-Bielefeld Mensa",
    "city": "Bielefeld",
    "address": "Universitätsstraße 25, 33615 Bielefeld, Germany",
    "coordinates": [52.040336075514254, 8.49268913269043]
  },
  {
    "id": 204,
    "name": "mensa accent",
    "city": "Wiesbaden",
    "address": "Kurt-Schumacher-Ring 18, 65197 Wiesbaden, Germany",
    "coordinates": [50.080353155723834, 8.216807842254639]
  },
  {
    "id": 205,
    "name": "Mensa Pi x Gaumen",
    "city": "Frankfurt am Main",
    "address": "Max-von-Laue-Str. 9, 60438 Frankfurt am Main, Germany",
    "coordinates": [50.17187518988534, 8.631101846694946]
  },
  {
    "id": 206,
    "name": "Mensa Casino",
    "city": "Frankfurt am Main",
    "address": "Grüneburgplatz 1, 60323 Frankfurt am Main, Germany",
    "coordinates": [50.12625135, 8.66986795320106]
  },
  {
    "id": 207,
    "name": "Cafeteria LEVEL",
    "city": "Frankfurt am Main",
    "address": "Ruth-Moufang-Straße 2, 60438 Frankfurt am Main, Germany",
    "coordinates": [50.174087818759794, 8.628612756729126]
  },
  {
    "id": 208,
    "name": "Cafeteria Darwins",
    "city": "Frankfurt am Main",
    "address": "Max-von-Laue-Str. 13, 60438 Frankfurt am Main, Germany",
    "coordinates": [50.17257609583351, 8.627325296401978]
  },
  {
    "id": 209,
    "name": "Mensa Anbau Casino",
    "city": "Frankfurt am Main",
    "address": "Grüneburgplatz 1, 60323 Frankfurt am Main, Germany",
    "coordinates": [50.12701645702743, 8.666560649871828]
  },
  {
    "id": 210,
    "name": "Cafeteria DASEIN",
    "city": "Frankfurt am Main",
    "address": "Grüneburgplatz 1, 60323 Frankfurt am Main, Germany",
    "coordinates": [50.12636990880318, 8.668577671051024]
  },
  {
    "id": 211,
    "name": "Cafeteria Bockenheim",
    "city": "Frankfurt am Main",
    "address": "Bockenheimer Landstraße 133 60325 Frankfurt am Main ",
    "coordinates": [50.1195207, 8.6519106]
  },
  {
    "id": 212,
    "name": "Café HOCHFORM",
    "city": "Frankfurt am Main",
    "address": "Ginnheimer Landstraße 39, 60487 Frankfurt am Main, Germany",
    "coordinates": [50.131521417613946, 8.645038604736328]
  },
  {
    "id": 213,
    "name": "Mensa essWERK",
    "city": "Frankfurt am Main",
    "address": "Kleiststraße 7,  60318 Frankfurt am Main, Germany",
    "coordinates": [50.130386620172224, 8.691548109054565]
  },
  {
    "id": 214,
    "name": "Mensa HfMDK",
    "city": "Frankfurt am Main",
    "address": "Eschersheimer Landstraße 35, 60322 Frankfurt am Main, Germany",
    "coordinates": [50.12011915, 8.6763037189319]
  },
  {
    "id": 215,
    "name": "Cafeteria HfG",
    "city": "Frankfurt am Main",
    "address": "Schlossstr. 31, 63065 Offenbach, Germany",
    "coordinates": [50.10739946155254, 8.764756321907043]
  },
  {
    "id": 216,
    "name": "Mensa POINT",
    "city": "Frankfurt am Main",
    "address": "Bertramstraße 27, 65185 Wiesbaden, Germany",
    "coordinates": [50.0796656, 8.23059584604042]
  },
  {
    "id": 229,
    "name": "StuBistro Rosenheim",
    "city": "Rosenheim",
    "address": "Hochschulstr. 1, Rosenheim",
    "coordinates": [47.86715636957847, 12.107834815979004]
  },
  {
    "id": 230,
    "name": "StuCafé Adalbertstraße",
    "city": "München",
    "address": "Adalbertstraße 5, München",
    "coordinates": [48.151728773944136, 11.579697132110596]
  },
  {
    "id": 232,
    "name": "StuCafé Karlstraße",
    "city": "München",
    "address": "Karlstr. 6, München",
    "coordinates": [48.14289880221191, 11.5683513879776]
  },
  {
    "id": 235,
    "name": "Mensa Burg",
    "city": "Halle (Saale)",
    "address": "Seebener Str. 1, 06114 Halle",
    "coordinates": [51.5098801, 11.9618436]
  },
  {
    "id": 236,
    "name": "Mensa Franckesche Stiftungen",
    "city": "Halle (Saale)",
    "address": "Franckeplatz 1 Haus 26/27, 06108 Halle",
    "coordinates": [51.4782, 11.9782]
  },
  {
    "id": 237,
    "name": "Mensa Merseburg",
    "city": "Merseburg",
    "address": "Eberhard-Leibnitz-Straße 2, 06217 Merseburg",
    "coordinates": [51.3462092, 11.9791999]
  },
  {
    "id": 238,
    "name": "Heidemensa",
    "city": "Halle (Saale)",
    "address": "Theodor-Lieser-Str. 7, 06120 Halle",
    "coordinates": [51.4950807, 11.9369368]
  },
  {
    "id": 239,
    "name": "Mensa Neuwerk",
    "city": "Halle (Saale)",
    "address": "Neuwerk 7, 06108 Halle",
    "coordinates": [51.4906101, 11.9573148]
  },
  {
    "id": 240,
    "name": "Weinbergmensa",
    "city": "Halle (Saale)",
    "address": "Wolfgang-Langenbeck-Str. 3, 06120 Halle (Saale)",
    "coordinates": [51.4985582, 11.9438616]
  },
  {
    "id": 241,
    "name": "Mensa Bernburg",
    "city": "Bernburg (Saale)",
    "address": "Strenzfelder Allee 20, 06406 Bernburg",
    "coordinates": [51.8248655, 11.706142]
  },
  {
    "id": 242,
    "name": "Mensa Dessau",
    "city": "Dessau-Rosslau",
    "address": "Kleiststraße 2/Seminarplatz, 06846 Dessau-Rosslau",
    "coordinates": [51.84159, 12.23088]
  },
  {
    "id": 243,
    "name": "Harzmensa",
    "city": "Halle (Saale)",
    "address": "Harz 41, 06108 Halle",
    "coordinates": [51.4903546, 11.9672061]
  },
  {
    "id": 244,
    "name": "Mensa Fasanerieallee",
    "city": "Köthen (Anhalt)",
    "address": "Fasanerieallee 1a, 06366 Köthen",
    "coordinates": [51.7539594, 11.9671158]
  },
  {
    "id": 245,
    "name": "Mensa Tulpe",
    "city": "Halle (Saale)",
    "address": "Universitätsring 5, 06108 Halle",
    "coordinates": [51.4870671, 11.9689776]
  },
  {
    "id": 256,
    "name": "Erlangen Südmensa",
    "city": "Erlangen",
    "address": "Erwin-Rommel-Straße 60, 91058 Erlangen",
    "coordinates": [49.57414515, 11.0290237490766]
  },
  {
    "id": 259,
    "name": "Würz­burg, Mensateria Campus Nord",
    "city": "Würzburg",
    "address": " Emil Hilb Weg 12 , 97074 Würz­burg ",
    "coordinates": [49.78546435, 9.9691371]
  },
  {
    "id": 261,
    "name": "Mensa / Mensacafe Saarbrücken",
    "city": "Saarbrücken / Saarland",
    "address": "Campus D 4.1",
    "coordinates": [49.25734420743913, 7.043212652206422]
  },
  {
    "id": 264,
    "name": "Mensa Langemarckplatz",
    "city": "Erlangen",
    "address": "Langemarckplatz 4, 91054 Erlangen",
    "coordinates": [49.5935493, 11.0105753]
  },
  {
    "id": 265,
    "name": "Mensa Insel Schütt",
    "city": "Nürnberg",
    "address": "Hintere Insel Schütt 5, 90403 Nürnberg, Germany",
    "coordinates": [49.45398905633699, 11.08471155166626]
  },
  {
    "id": 266,
    "name": "Mensa Regensburger Straße",
    "city": "Nürnberg",
    "address": "Regensburger Str. 160, 90478 Nürnberg, Germany",
    "coordinates": [49.43843605, 11.1130078522348]
  },
  {
    "id": 267,
    "name": "Ausgabemensa St. Paul",
    "city": "Nürnberg",
    "address": "Dutzendteichstraße 24, 90478 Nürnberg, Germany",
    "coordinates": [49.43679421715311, 11.114119291305542]
  },
  {
    "id": 268,
    "name": "Mensateria Ohm",
    "city": "Nürnberg",
    "address": "Wollentorstr. 4, 90489 Nürnberg, Germany",
    "coordinates": [49.45253836573686, 11.094603538513182]
  },
  {
    "id": 269,
    "name": "Cafeteria \"Come IN\" Hohfederstraße",
    "city": "Nürnberg",
    "address": "Hohfederstraße 40, 90489 Nürnberg",
    "coordinates": [49.45818355, 11.1023575039193]
  },
  {
    "id": 270,
    "name": "Cafeteria Bärenschanzstraße",
    "city": "Nürnberg",
    "address": "Bärenschanzstr. 4, 90429 Nürnberg, Germany",
    "coordinates": [49.4509359, 11.0604708]
  },
  {
    "id": 271,
    "name": "Cafeteria Eichstätt",
    "city": "Eichstätt",
    "address": "Universitätsallee 2, 85072 Eichstätt",
    "coordinates": [48.88681506271628, 11.191999912261963]
  },
  {
    "id": 272,
    "name": "Cafeteria Ingolstadt",
    "city": "Ingolstadt",
    "address": "Esplanade 10, 85049 Ingolstadt, Germany",
    "coordinates": [48.767384298560685, 11.43201470375061]
  },
  {
    "id": 273,
    "name": "Mensateria Gastwirtschaft zum Adler Triesdorf",
    "city": "Triesdorf",
    "address": "Markgrafenstraße 14, 91746 Weidenbach, Germany",
    "coordinates": [49.20318666428436, 10.652940273284912]
  },
  {
    "id": 274,
    "name": "Mensa Ansbach",
    "city": "Ansbach",
    "address": "Residenzstraße 8, 91522 Ansbach, Germany",
    "coordinates": [49.305958293050516, 10.565907955169676]
  },
  {
    "id": 277,
    "name": "Heilbronn, Mensa Bildungscampus/Europaplatz",
    "city": "Heilbronn",
    "address": "Bildungscampus 8, 74076 Heilbronn",
    "coordinates": [49.148449150000005, 9.215792608703705]
  },
  {
    "id": 278,
    "name": "Heilbronn, Mensa Sontheim",
    "city": "Heilbronn",
    "address": "Max-Planck-Straße 39, 74081 Heilbronn",
    "coordinates": [49.122579599999995, 9.209932893491]
  },
  {
    "id": 279,
    "name": "Heidelberg, Mensa Im Neuenheimer Feld 304",
    "city": "Heidelberg",
    "address": "Im Neuenheimer Feld 304, 69120 Heidelberg",
    "coordinates": [49.4159348, 8.6708164]
  },
  {
    "id": 280,
    "name": "Künzelsau, Mensa Reinhold-Würth-Hochschule",
    "city": "Künzelsau",
    "address": "Daimlerstraße 35, 74653 Künzelsau",
    "coordinates": [49.2751809, 9.7135785]
  },
  {
    "id": 281,
    "name": "Heidelberg, Triplex-Mensa am Uniplatz",
    "city": "Heidelberg",
    "address": "Grabengasse 14, 69117 Heidelberg",
    "coordinates": [49.410693, 8.7058334]
  },
  {
    "id": 282,
    "name": "Heidelberg, zeughaus-Mensa im Marstall",
    "city": "Heidelberg",
    "address": "Marstallhof 3, 69117 Heidelberg",
    "coordinates": [49.41261025, 8.70463671065356]
  },
  {
    "id": 283,
    "name": "Mannheim, Mensaria Metropol",
    "city": "Mannheim",
    "address": "Hans-Thoma-Straße 51, 68163 Mannheim",
    "coordinates": [49.4736051, 8.53568235]
  },
  {
    "id": 285,
    "name": "Mannheim, Mensa am Schloss",
    "city": "Mannheim",
    "address": "Bismarckstraße 10, 68159 Mannheim",
    "coordinates": [49.4846845, 8.4595769]
  },
  {
    "id": 286,
    "name": "Mannheim, Cafeteria Musikhochschule",
    "city": "Mannheim",
    "address": "N7 17, 68161 Mannheim",
    "coordinates": [49.4836677, 8.471752046098267]
  },
  {
    "id": 287,
    "name": "Mannheim, Mensaria Wohlgelegen",
    "city": "Mannheim",
    "address": "Käfertaler Straße 258, 68167 Mannheim",
    "coordinates": [49.5005385, 8.4996709]
  },
  {
    "id": 289,
    "name": "Mannheim, Mensa Hochschule Mannheim",
    "city": "Mannheim",
    "address": "Bau J, Paul-Wittsack-Straße 10, 68163 Mannheim",
    "coordinates": [49.46992, 8.48243]
  },
  {
    "id": 296,
    "name": "Chemnitz, Reichenhainer Straße, Mensa",
    "city": "Chemnitz",
    "address": "Reichenhainer Straße 55, 09126 Chemnitz",
    "coordinates": [50.8148941, 12.930733]
  },
  {
    "id": 297,
    "name": "Chemnitz, Straße der Nationen, Mensa",
    "city": "Chemnitz",
    "address": "Straße der Nationen 62, 09111 Chemnitz",
    "coordinates": [50.83853213060906, 12.928360104560852]
  },
  {
    "id": 298,
    "name": "Zwickau, Ring, Cafeteria",
    "city": "Zwickau",
    "address": "Klosterstraße 9, 08056 Zwickau",
    "coordinates": [50.715895, 12.4959928]
  },
  {
    "id": 300,
    "name": "Abendmensa OTH Regensburg",
    "city": "Regensburg",
    "address": "Seybothstr. 2, 93053 Regensburg",
    "coordinates": [49.0035999900676, 12.096011638641356]
  },
  {
    "id": 303,
    "name": "Chemnitz, Reichenhainer Straße, Cafeteria",
    "city": "Chemnitz",
    "address": "Reichenhainer Straße 55, 09126 Chemnitz",
    "coordinates": [50.8148941, 12.930733]
  },
  {
    "id": 304,
    "name": "Chemnitz, Straße der Nationen, Cafeteria",
    "city": "Chemnitz",
    "address": "Straße der Nationen 62, 09111 Chemnitz",
    "coordinates": [50.8385693949961, 12.928376197814941]
  },
  {
    "id": 305,
    "name": "Zwickau, Ring, Mensa",
    "city": "Zwickau",
    "address": "Klosterstraße 9, 08056 Zwickau",
    "coordinates": [50.715895, 12.4959928]
  },
  {
    "id": 306,
    "name": "Zwickau, Scheffelberg, Mensa",
    "city": "Zwickau",
    "address": "Scheffelstraße 39, 08066 Zwickau",
    "coordinates": [50.7334417, 12.5051553]
  },
  {
    "id": 310,
    "name": "Mensa WZ Straubing",
    "city": "Straubing",
    "address": "Schulgasse 16, 94315 Straubing, Germany",
    "coordinates": [48.88376775, 12.584384277159]
  },
  {
    "id": 313,
    "name": "Cafeteria Nikolakloster Passau",
    "city": "Passau",
    "address": "Innstraße 40, 94032 Passau, Germany",
    "coordinates": [48.5700129, 13.4565799]
  },
  {
    "id": 314,
    "name": "Cafeteria Prüfening Regensburg",
    "city": "Regensburg",
    "address": "Prüfeningerstraße 58, 93049 Regensburg, Germany",
    "coordinates": [49.01700603428523, 12.070358991622923]
  },
  {
    "id": 315,
    "name": "Cafeteria Philosophie-Theologie (PT) Regensburg",
    "city": "Regensburg",
    "address": "Universitätsstraße 31, 93053 Regensburg, Germany",
    "coordinates": [48.999123467614204, 12.095931172370909]
  },
  {
    "id": 316,
    "name": "Cafeteria Chemie Regensburg",
    "city": "Regensburg",
    "address": "Universitätsstraße 31, 93053 Regensburg, Germany",
    "coordinates": [48.995730614968735, 12.0956951379776]
  },
  {
    "id": 319,
    "name": "Cafeteria Sport Regensburg",
    "city": "Regensburg",
    "address": "Universitätsstr. 31, 93053 Regensburg, Germany",
    "coordinates": [48.99253112623852, 12.095024585723875]
  },
  {
    "id": 339,
    "name": "Mensa Universitätsstraße, Düsseldorf",
    "city": "Düsseldorf",
    "address": "Universitätsstraße 1, 40225 Düsseldorf",
    "coordinates": [51.1884571, 6.7956763]
  },
  {
    "id": 340,
    "name": "Mensa Kamp-Lintfort",
    "city": "Düsseldorf",
    "address": "Friedrich-Heinrich-Allee 25, 47475 Kamp-Lintfort",
    "coordinates": [51.5003446, 6.54579814394026]
  },
  {
    "id": 341,
    "name": "Mensa Campus Derendorf",
    "city": "Düsseldorf",
    "address": "Münsterstraße 156, 40476 Düsseldorf",
    "coordinates": [51.2483706, 6.7913357]
  },
  {
    "id": 342,
    "name": "Mensa Georg-Glock-Straße, Düsseldorf",
    "city": "Düsseldorf",
    "address": "Georg-Glock-Straße 15, 40474 Düsseldorf",
    "coordinates": [51.2493273, 6.7689235]
  },
  {
    "id": 343,
    "name": "Mensa Obergath, Krefeld",
    "city": "Düsseldorf",
    "address": "Obergath 73, 47805 Krefeld",
    "coordinates": [51.3162506, 6.5746935]
  },
  {
    "id": 344,
    "name": "Mensa Frankenring, Krefeld",
    "city": "Düsseldorf",
    "address": "Frankenring 20, 47798 Krefeld",
    "coordinates": [51.3252342, 6.5543038]
  },
  {
    "id": 345,
    "name": "Mensa Sommerdeich, Kleve",
    "city": "Düsseldorf",
    "address": "Sommerdeich 16, 47533 Kleve",
    "coordinates": [51.796541, 6.1431551]
  },
  {
    "id": 346,
    "name": "Mensa Rheydter Straße, Mönchengladbach",
    "city": "Düsseldorf",
    "address": "Rheydter Str. 325, 41065 Mönchengladbach",
    "coordinates": [51.1900959, 6.4357315]
  },
  {
    "id": 347,
    "name": "restaurant \u0026 bar campus vita, Düsseldorf",
    "city": "Düsseldorf",
    "address": "Universitätsstraße 1, 40225 Düsseldorf",
    "coordinates": [51.1884571, 6.7956763]
  },
  {
    "id": 348,
    "name": "Essenausgabe Süd, Düsseldorf",
    "city": "Düsseldorf",
    "address": "Universitätsstraße 1, 40225 Düsseldorf",
    "coordinates": [51.1884571, 6.7956763]
  },
  {
    "id": 349,
    "name": "Kunstakademie, Düsseldorf",
    "city": "Düsseldorf",
    "address": "Eiskellerstraße 1, 40213 Düsseldorf",
    "coordinates": [51.2305377, 6.7738521]
  },
  {
    "id": 350,
    "name": "Musikhochschule, Düsseldorf",
    "city": "Düsseldorf",
    "address": "Fischerstraße 110, 40476 Düsseldorf",
    "coordinates": [51.24245785, 6.77223222984645]
  },
  {
    "id": 361,
    "name": "Kaiserslautern, TU Mensa",
    "city": "Kaiserslautern",
    "address": "Erwin-Schrödinger-Straße 30, 67663 Kaiserslautern",
    "coordinates": [49.4250257, 7.7506083]
  },
  {
    "id": 368,
    "name": "Rostock, Mensa Süd",
    "city": "Rostock",
    "address": "Albert-Einstein-Str. 6a, 18055 Rostock",
    "coordinates": [54.07597135, 12.1048938282805]
  },
  {
    "id": 369,
    "name": "Rostock, Mensa E1nstein",
    "city": "Rostock",
    "address": "Erich-Schlesinger-Str. 19, 18059 Rostock, Germany",
    "coordinates": [54.0786156, 12.1149428]
  },
  {
    "id": 370,
    "name": "Rostock, Mensa St.-Georg-Straße",
    "city": "Rostock",
    "address": "St.-Georg-Str. 104 - 107, 18055 Rostock, Germany",
    "coordinates": [54.0818814, 12.1382220768994]
  },
  {
    "id": 371,
    "name": "Rostock, Mensa Multiple Choice",
    "city": "Rostock",
    "address": "Schillingallee 70, 18057 Rostock, Germany",
    "coordinates": [54.0849705, 12.098655708333]
  },
  {
    "id": 372,
    "name": "Rostock, Mensa Ulme",
    "city": "Rostock",
    "address": "Ulmenstraße 69, 18057 Rostock, Germany",
    "coordinates": [54.0858416, 12.1090426959145]
  },
  {
    "id": 374,
    "name": "Wismar, Campus Mensa",
    "city": "Wismar",
    "address": "Philipp-Müller-Str. 14 a, 23966 Wismar, Germany",
    "coordinates": [53.8861137, 11.4338828]
  },
  {
    "id": 381,
    "name": "Casino Cafeteria",
    "city": "Frankfurt am Main",
    "address": "Theodor-W.-Adorno-Platz 2a, 60323 Frankfurt am Main, Germany",
    "coordinates": [50.1268884, 8.6669763]
  },
  {
    "id": 383,
    "name": "Köln, Mensa Südstadt",
    "city": "Köln",
    "address": "Mainzer Straße 5, 50678 Köln",
    "coordinates": [50.9211483, 6.9637161]
  },
  {
    "id": 384,
    "name": "Köln, Mensa Zülpicher Straße",
    "city": "Köln",
    "address": "Zülpicher Straße 70, 50937 Köln",
    "coordinates": [50.9278087, 6.932951516244162]
  },
  {
    "id": 385,
    "name": "Köln, Mensa Kunsthochschule Medien",
    "city": "Köln",
    "address": "Filzengraben 2-4, 50676 Köln",
    "coordinates": [50.9337505, 6.962957]
  },
  {
    "id": 386,
    "name": "Köln, Mensa Robert-Koch-Straße",
    "city": "Köln",
    "address": "Robert-Koch-Straße 10, 50931 Köln",
    "coordinates": [50.925342549999996, 6.924371298054247]
  },
  {
    "id": 387,
    "name": "Köln, Mensa Deutz",
    "city": "Köln",
    "address": "Betzdorfer Strauße 2, 50679 Köln",
    "coordinates": [50.934014, 6.988374]
  },
  {
    "id": 388,
    "name": "Köln, Mensa Musikhochschule",
    "city": "Köln",
    "address": "Dagobertstraße 38, 50668 Köln",
    "coordinates": [50.9481932, 6.960842]
  },
  {
    "id": 389,
    "name": "Köln, Mensa am Sportpark Müngersdorf",
    "city": "Köln",
    "address": "Am Sportpark Müngersdorf 2, 50933 Köln",
    "coordinates": [50.9370465, 6.869326510642878]
  },
  {
    "id": 390,
    "name": "Gummersbach, Mensa Gummersbach",
    "city": "Gummersbach",
    "address": "Steinmüllerallee 1, 51643 Gummersbach",
    "coordinates": [51.02305955, 7.561739417163916]
  },
  {
    "id": 391,
    "name": "Köln, Café Himmelsblick, Claudiusstraße",
    "city": "Köln",
    "address": "Claudiusstraße 1, 50678 Köln",
    "coordinates": [50.91957995, 6.967450057076347]
  },
  {
    "id": 392,
    "name": "Stuttgart Mitte, Mensa 1 (Holzgartenstraße)",
    "city": "Stuttgart",
    "address": "Holzgartenstraße 11, 70174 Stuttgart",
    "coordinates": [48.7810329, 9.169666860576651]
  },
  {
    "id": 393,
    "name": "Ludwigsburg, Mensa Ludwigsburg",
    "city": "Ludwigsburg",
    "address": "Reuteallee 46, 71634 Ludwigsburg",
    "coordinates": [48.9095338, 9.1831892]
  },
  {
    "id": 394,
    "name": "Stuttgart Nord, Mensa Kunstakademie",
    "city": "Stuttgart",
    "address": "Am Weißenhof 1, 70191 Stuttgart",
    "coordinates": [48.80067355, 9.174650002814065]
  },
  {
    "id": 395,
    "name": "Stuttgart Mitte, Mensa Musikhochschule",
    "city": "Stuttgart",
    "address": "Urbanstraße 25, 70182 Stuttgart",
    "coordinates": [48.7783451, 9.186318944571928]
  },
  {
    "id": 396,
    "name": "Esslingen, Mensa Stadtmitte - Kanalstraße",
    "city": "Esslingen",
    "address": "Kanalstraße 27, 73728 Esslingen",
    "coordinates": [48.7386404, 9.310158560648645]
  },
  {
    "id": 397,
    "name": "Esslingen, Mensa Flandernstraße",
    "city": "Esslingen",
    "address": "Flandernstraße 107, 73732 Esslingen",
    "coordinates": [48.744544649999995, 9.323865116163583]
  },
  {
    "id": 399,
    "name": "Stuttgart Vaihingen, Mensa 2",
    "city": "Stuttgart",
    "address": "Pfaffenwaldring 45, 70569 Stuttgart",
    "coordinates": [48.7461998, 9.102974]
  },
  {
    "id": 607,
    "name": "Foodorama Restaurant, Coffeebar \u0026 Lounge",
    "city": "Baden-Dättwil",
    "address": "ABB Schweiz AG\nSegelhofstrasse 1\n5405 Baden-Dättwil",
    "coordinates": [47.458401, 8.277704]
  },
  {
    "id": 608,
    "name": "Personalrestaurant Aubrücke",
    "city": "Turgi",
    "address": "ABB Schweiz AG\nStichstrasse\n5300 Turgi",
    "coordinates": [47.496185, 8.250861]
  },
  {
    "id": 609,
    "name": "Personalrestaurant AMAG",
    "city": "Dübendorf",
    "address": "AMAG Autowelt\nGiessenstrasse 4\n8600 Dübendorf",
    "coordinates": [47.402005, 8.609737]
  },
  {
    "id": 610,
    "name": "Restaurant visavis",
    "city": "Langenthal",
    "address": "Ammann\nGüterstrasse 20\n4900 Langenthal",
    "coordinates": [47.21676, 7.782131]
  },
  {
    "id": 611,
    "name": "Restaurant Berner Technologiepark",
    "city": "Bern",
    "address": "http://technologiepark-bern.sv-restaurant.ch\nMorgenstrasse 129\n3018 Bern",
    "coordinates": [46.934647, 7.389716]
  },
  {
    "id": 612,
    "name": "Personalrestaurant Bruker BioSpin",
    "city": "Fällanden",
    "address": "E- Mail: marc.tuchschmid@sv-group.ch\nIndustriestrasse 26\n8117 Fällanden",
    "coordinates": [47.378199, 8.643447]
  },
  {
    "id": 613,
    "name": "Personalrestaurant VIVA",
    "city": "Uzwil",
    "address": "Bühler AG\nBahnhofstrasse 114\n9240 Uzwil",
    "coordinates": [47.44098, 9.137784]
  },
  {
    "id": 614,
    "name": "SV Restaurant Cockpit",
    "city": "Stans",
    "address": "RUAG Aerospace\nEnnetbürgerstrasse\n6371 Stans",
    "coordinates": [46.966347, 8.352935]
  },
  {
    "id": 615,
    "name": "Restaurant Touch and Go",
    "city": "Wilderswil",
    "address": "RUAG Aerospace\nBönigstrasse 15\n3812 Wilderswil",
    "coordinates": [46.683986, 7.871031]
  },
  {
    "id": 616,
    "name": "Restaurant daylis Dübendorf",
    "city": "Dübendorf",
    "address": "Luftwaffe Dübendorf\nWangenstrasse\n8600 Dübendorf",
    "coordinates": [47.403719, 8.628573]
  },
  {
    "id": 617,
    "name": "Personalrestaurant Fliegertreff",
    "city": "Unterbach BE",
    "address": "Luftwaffe Meiringen\nFlugplatzkommando Meiringen\n3857 Unterbach BE",
    "coordinates": [46.739712, 8.115747]
  },
  {
    "id": 618,
    "name": "SV Restaurant BASF Kaisten",
    "city": "Kaisten",
    "address": "BASF Kaisten AG\nHardmatt 434\n5082 Kaisten",
    "coordinates": [47.546785, 8.037057]
  },
  {
    "id": 619,
    "name": "Restaurant Empa/Eawag",
    "city": "Dübendorf",
    "address": "\nKriesbachstrasse 45\n8600 Dübendorf",
    "coordinates": [47.4022897, 8.6150121]
  },
  {
    "id": 620,
    "name": "Restaurant GIARDINO",
    "city": "Zürich",
    "address": "Agroscope\nReckenholzstrasse 191\n8046 Zürich",
    "coordinates": [47.428918, 8.516348]
  },
  {
    "id": 621,
    "name": "Restaurant «neuland»",
    "city": "Altdorf UR",
    "address": "RUAG Real Estate AG\nNeuland 9\n6460 Altdorf UR",
    "coordinates": [46.864825, 8.636313]
  },
  {
    "id": 622,
    "name": "RistorETA",
    "city": "Grenchen",
    "address": "ETA SA Manufacture Horlogère Suisse\nKapellstrasse 33\n2540 Grenchen",
    "coordinates": [47.195719, 7.396334]
  },
  {
    "id": 623,
    "name": "Cafeteria ewz",
    "city": "Zürich",
    "address": "Elektrizitätswerk der Stadt Zürich\nTramstrasse 35\n8050 Zürich",
    "coordinates": [47.408857, 8.549129]
  },
  {
    "id": 624,
    "name": "Personalrestaurant Garaventa AG",
    "city": "Goldau",
    "address": "Restaurant Al Fune\nTennmattstrasse 15\n6410 Goldau",
    "coordinates": [47.054281, 8.549868]
  },
  {
    "id": 625,
    "name": "Restaurant CasAroma",
    "city": "Dübendorf",
    "address": "\nUeberlandstrasse 138\n8600 Dübendorf",
    "coordinates": [47.4025896, 8.6050887]
  },
  {
    "id": 626,
    "name": "Personalrestaurant Vetropick",
    "city": "Bülach",
    "address": "Vetropack AG\nSchützenmattstrasse 46\n8180 Bülach",
    "coordinates": [47.529008, 8.532123]
  },
  {
    "id": 627,
    "name": "Restaurant GIARDINO",
    "city": "Gümligen",
    "address": "HACO AG\nWorbstrasse 262\n3073 Gümligen",
    "coordinates": [46.932558, 7.5102]
  },
  {
    "id": 628,
    "name": "Restaurant HP Dübendorf",
    "city": "Dübendorf",
    "address": "Hewlett-Packard (Schweiz) GmbH\nUeberlandstrasse 1\n8600 Dübendorf",
    "coordinates": [47.405031, 8.596845]
  },
  {
    "id": 629,
    "name": "Personalrestaurant Aarehuus",
    "city": "Holderbank",
    "address": "Holcim Group Support Ltd.\nIm Schachen\n5113 Holderbank",
    "coordinates": [47.425954, 8.16744]
  },
  {
    "id": 630,
    "name": "Restaurant Reiterstrasse",
    "city": "Bern",
    "address": "Kantonale Verwaltung\nReiterstrasse 11\n3011 Bern",
    "coordinates": [46.953653, 7.461898]
  },
  {
    "id": 631,
    "name": "Restaurant daylis Erziehungsdirektion des Kantons Bern",
    "city": "Bern",
    "address": "http://erziehungsdirektion.sv-restaurant.ch\nSulgeneckstrasse 70\n3005 Bern",
    "coordinates": [46.940522, 7.440668]
  },
  {
    "id": 632,
    "name": "Restaurant Aabächli",
    "city": "Zug",
    "address": "Hochbauamt Kanton Zug\nAabachstrasse 5\n6300 Zug",
    "coordinates": [47.174459, 8.510655]
  },
  {
    "id": 633,
    "name": "Restaurant five moods",
    "city": "Zug",
    "address": "SV (Schweiz) AG\nDammstrasse 22\n6300 Zug",
    "coordinates": [47.176132, 8.514636]
  },
  {
    "id": 634,
    "name": "Restaurant Optik-Hus",
    "city": "Heerbrugg",
    "address": "\nDachertstrasse\n9435 Heerbrugg",
    "coordinates": [47.407309, 9.617189]
  },
  {
    "id": 635,
    "name": "SV Restaurant Siesta",
    "city": "Hägendorf",
    "address": "Marti Generalunternehmung AG\nFabrikstrasse 10\n4614 Hägendorf",
    "coordinates": [47.329821, 7.838435]
  },
  {
    "id": 636,
    "name": "Restaurant Meyer Burger AG",
    "city": "Gwatt (Thun)",
    "address": "Meyer Burger AG\nSchorenstrasse 39\n3645 Gwatt (Thun)",
    "coordinates": [46.733994, 7.620954]
  },
  {
    "id": 637,
    "name": "Cafeteria Gourmetro",
    "city": "Baar",
    "address": "MIAG C.V Amsterdam NL\nNeuhofstrasse 4\n6341 Baar",
    "coordinates": [47.190194, 8.513319]
  },
  {
    "id": 638,
    "name": "Restaurant Tiergarten",
    "city": "Mels",
    "address": "armasuisse Rekrutierungszentrum\nPöltisstrasse 40\n8887 Mels",
    "coordinates": [47.061221, 9.397645]
  },
  {
    "id": 639,
    "name": "Personalrestaurant Time-Out",
    "city": "Goldach",
    "address": "Fronerie Suisse S.A.\nBlumenfeldstrasse 15\n9403 Goldach",
    "coordinates": [47.473411, 9.478629]
  },
  {
    "id": 640,
    "name": "SV Restaurant Manegg",
    "city": "Zürich",
    "address": "Avaloq\nAllmendstrasse 142\n8041 Zürich",
    "coordinates": [47.338571, 8.51832]
  },
  {
    "id": 641,
    "name": "Restaurant PwC-Inn",
    "city": "Zürich",
    "address": "PricewaterhouseCoopers AG\nBirchstrasse 160\n8050 Zürich",
    "coordinates": [47.412683, 8.538215]
  },
  {
    "id": 642,
    "name": "Restaurant Oase",
    "city": "Basel",
    "address": "Post CH AG\nPost-Passage 5, Niveau 9\n4051 Basel",
    "coordinates": [47.54669, 7.592538]
  },
  {
    "id": 643,
    "name": "Restaurant Engehalde",
    "city": "Bern",
    "address": "\nEngehaldenstrasse 35\n3012 Bern",
    "coordinates": [46.9607802, 7.4416971]
  },
  {
    "id": 644,
    "name": "Level3",
    "city": "Mägenwil",
    "address": "Post CH AG\nAlmuesenacherstrasse 4\n5506 Mägenwil",
    "coordinates": [47.41522, 8.235401]
  },
  {
    "id": 645,
    "name": "eat\u0026meet",
    "city": "Gallen",
    "address": "Post CH AG\nOberstrasse 153\n9020 St. Gallen",
    "coordinates": [47.413776, 9.35595]
  },
  {
    "id": 646,
    "name": "PostWest",
    "city": "Zürich",
    "address": "Post CH AGZürcherstrasse 1618010 Zürich-Mülligen",
    "coordinates": [47.396016, 8.469043]
  },
  {
    "id": 647,
    "name": "Personalrestaurant Insieme",
    "city": "Zofingen",
    "address": "\nBrühlstrasse 5\n4800 Zofingen",
    "coordinates": [47.28698, 7.941871]
  },
  {
    "id": 648,
    "name": "Restaurant Bella Vista",
    "city": "Rothrist",
    "address": "Rivella AG\nNeue Industriestrasse 10\n4852 Rothrist",
    "coordinates": [47.306109, 7.870233]
  },
  {
    "id": 649,
    "name": "SBB Stadtbistro Brig",
    "city": "Brig",
    "address": "SBB CFF FFS\nBahnhofplatz\n3900 Brig",
    "coordinates": [46.319232, 7.986271]
  },
  {
    "id": 650,
    "name": "SV Restaurant Scintilla",
    "city": "Zuchwil",
    "address": "\nWidistrasse 5\n4528 Zuchwil",
    "coordinates": [47.2104476, 7.5576553]
  },
  {
    "id": 651,
    "name": "Personalrestaurant Luppmenoase",
    "city": "Fehraltorf",
    "address": "Electrosuisse\nLuppmenstrasse 1-3\n8320 Fehraltorf",
    "coordinates": [47.386375, 8.748415]
  },
  {
    "id": 652,
    "name": "Restaurant Hangar 11",
    "city": "Dübendorf",
    "address": "skyguide\nFlugsicherungsstrasse 1 - 5\n8602 Wangen b. Dübendorf",
    "coordinates": [47.407388, 8.640053]
  },
  {
    "id": 653,
    "name": "Restaurant daylis Strassenverkehrsamt des Kantons Zürich",
    "city": "Zürich",
    "address": "Strassenverkehrsamt des Kantons Zürich\nUetlibergstrasse 301\n8045 Zürich",
    "coordinates": [47.353437, 8.512877]
  },
  {
    "id": 654,
    "name": "the headQuarters",
    "city": "Kloten",
    "address": "restaurants, bar \u0026 lounge / Im Erdgeschoss des mittleren Gebäudes\nObstgartenstrasse 25/29\n8302 Kloten",
    "coordinates": [47.451649, 8.577305]
  },
  {
    "id": 655,
    "name": "Restaurant T@zino",
    "city": "Zollikofen",
    "address": "T-Systems (Schweiz) AG\nIndustriestrasse 21\n3052 Zollikofen",
    "coordinates": [47.004655, 7.465167]
  },
  {
    "id": 656,
    "name": "Eat \u0026 Meet",
    "city": "Muttenz",
    "address": "Valora Schweiz AG\nHofackerstrasse 40\n4132 Muttenz",
    "coordinates": [47.534944, 7.640895]
  },
  {
    "id": 657,
    "name": "Personalrestaurant repos",
    "city": "Winterthur",
    "address": "Volg Konsumwaren AG\nDeltastrasse 2\n8404 Winterthur",
    "coordinates": [47.494658, 8.74946]
  },
  {
    "id": 658,
    "name": "wipfrestaurant",
    "city": "Volketswil",
    "address": "SV (Schweiz) AG\nIndustriestrasse 29\n8604 Volketswil",
    "coordinates": [47.380372, 8.6803]
  },
  {
    "id": 659,
    "name": "Restaurant Chez Würth",
    "city": "Arlesheim",
    "address": "Würth AG\nDornwydenweg 11\n4144 Arlesheim",
    "coordinates": [47.49697, 7.607165]
  },
  {
    "id": 660,
    "name": "Mensa Alte Kantonsschule Aarau",
    "city": "Aarau",
    "address": "Haus Wedekind\nBahnhofstrasse 101\n5001 Aarau",
    "coordinates": [47.393094, 8.054293]
  },
  {
    "id": 661,
    "name": "Mensa Neue Kantonsschule Aarau",
    "city": "Aarau",
    "address": "Neue Kantonsschule Aarau\nSchanzmättelistrasse 32\n5000 Aarau",
    "coordinates": [47.386561, 8.044523]
  },
  {
    "id": 662,
    "name": "Mensa Bäumlihof",
    "city": "Basel",
    "address": "Bäumlihof\nZu den drei Linden 80\n4058 Basel",
    "coordinates": [47.56783, 7.626286]
  },
  {
    "id": 663,
    "name": "Restaurant Biozentrum",
    "city": "Basel",
    "address": "Universität Basel\nKlingelbergstrasse 70\n4056 Basel",
    "coordinates": [47.56392, 7.579964]
  },
  {
    "id": 664,
    "name": "Mensa Departement für Physik",
    "city": "Basel",
    "address": "Universität Basel\nSt. Johanns-Ring 25\n4056 Basel",
    "coordinates": [47.565019, 7.578864]
  },
  {
    "id": 665,
    "name": "Cafeteria La strada",
    "city": "Basel",
    "address": "Universität Basel\nPeter Merian Weg 8\n4002 Basel",
    "coordinates": [47.545362, 7.596605]
  },
  {
    "id": 666,
    "name": "Mensa Uni Basel",
    "city": "Basel",
    "address": "Gastronomie Universität Basel\nBernoullistrasse 14 - 16\n4056 Basel",
    "coordinates": [47.560038, 7.581902]
  },
  {
    "id": 667,
    "name": "Mensa Freies Gymnasium Bern",
    "city": "Bern",
    "address": "SV (Schweiz) AG\nBeaulieustrasse 55\n3012 Bern",
    "coordinates": [46.959808, 7.434244]
  },
  {
    "id": 668,
    "name": "Bistro Gymnasium Lerbermatt",
    "city": "Köniz",
    "address": "Gymnasium Lerbermatt\nKirchstrasse 72\n3098 Köniz",
    "coordinates": [46.929971, 7.435206]
  },
  {
    "id": 669,
    "name": "Bistro medi Bern",
    "city": "Bern",
    "address": "Zentrum für medizinische Bildung\nMax-Daetwyler-Platz 2\n3014 Bern",
    "coordinates": [46.966345, 7.464675]
  },
  {
    "id": 670,
    "name": "Mensa BFH AHB Biel",
    "city": "Biel/Bienne",
    "address": "Mensa Berner Fachhochschule Architektur, Holz und Bau\nSolothurnstrasse 102\n2500 Biel/Bienne",
    "coordinates": [47.158688, 7.276216]
  },
  {
    "id": 671,
    "name": "Mensa Kantonsschule Zürcher Unterland",
    "city": "Bülach",
    "address": "Kantonsschule Zürcher Unterland\nKantonsschulstrasse 25\n8180 Bülach",
    "coordinates": [47.517544, 8.548709]
  },
  {
    "id": 672,
    "name": "EBZ Gourmetina",
    "city": "Effretikon",
    "address": "Es freut sich Alex Leikauf  Restaurant Manager\nBungertenstrasse 47\n8307 Effretikon",
    "coordinates": [47.423477, 8.692002]
  },
  {
    "id": 673,
    "name": "Restaurant Baumeister Kurszentrum",
    "city": "Effretikon",
    "address": "\nAlteffretikerstrasse 44\n8307 Effretikon",
    "coordinates": [47.4300304, 8.6907062]
  },
  {
    "id": 674,
    "name": "Mensa BBZ Grenchen",
    "city": "Grenchen",
    "address": "Berufsbildungszentrum Grenchen\nSportstrasse 2\n2540 Grenchen",
    "coordinates": [47.184892, 7.401422]
  },
  {
    "id": 675,
    "name": "Mensa Kantonsschule Heerbrugg",
    "city": "Heerbrugg",
    "address": "Kantonsschule Heerbrugg\nKarl-Völker-Strasse 11\n9435 Heerbrugg",
    "coordinates": [47.416284, 9.630423]
  },
  {
    "id": 676,
    "name": "Mensa Gymnasium Immensee",
    "city": "Immensee",
    "address": "Gymnasium Immensee\nBethlehemweg 12\n6405 Immensee",
    "coordinates": [47.092823, 8.454134]
  },
  {
    "id": 730,
    "name": "Hochschule Kempten",
    "city": "Kempten",
    "address": "Bahnhofstraße + 61, 87435 + Kempten, Germany",
    "coordinates": [47.71555109072664, 10.313029282830938]
  },
  {
    "id": 737,
    "name": "SV (Schweiz AG), Restaurant Ambrosia",
    "city": "Basel",
    "address": "\nZwingerstrasse 21\n4053 Basel",
    "coordinates": [47.5435315, 7.592716]
  },
  {
    "id": 738,
    "name": "Mensa Gymnasium Münchenstein",
    "city": "Münchenstein",
    "address": "Gymnasium Münchenstein\nBaselstrasse 33\n4142 Münchenstein",
    "coordinates": [47.527049, 7.616954]
  },
  {
    "id": 739,
    "name": "BZM",
    "city": "Muttenz",
    "address": "Fachhochschule NordwestschweizGründenstrasse 404132 Muttenz",
    "coordinates": [47.533921, 7.638557]
  },
  {
    "id": 740,
    "name": "Cafeteria BBZ Olten",
    "city": "Olten",
    "address": "Berufsbildungszentrum BBZ\nAarauerstrasse 30\n4601 Olten",
    "coordinates": [47.347831, 7.909359]
  },
  {
    "id": 741,
    "name": "Mensa Kantonsschule Olten",
    "city": "Olten",
    "address": "Kantonsschule Olten\nHardfeldstrasse 53\n4600 Olten",
    "coordinates": [47.354772, 7.912239]
  },
  {
    "id": 742,
    "name": "Mensa HSR Hochschule Rapperswil",
    "city": "Rapperswil SG",
    "address": "HSR Hochschule für Technik Rapperswil\nOberseestrasse 10\n8640 Rapperswil SG",
    "coordinates": [47.223065, 8.816511]
  },
  {
    "id": 743,
    "name": "BZF Rheinfelden",
    "city": "Rheinfelden",
    "address": "\nEngerfeldstrasse 18\n4310 Rheinfelden",
    "coordinates": [47.547825, 7.801961]
  },
  {
    "id": 744,
    "name": "Bistro Gymnasium und WMS Thun-Schadau",
    "city": "Thun",
    "address": "\nSeestrasse 66\n3604 Thun",
    "coordinates": [46.7533191, 7.6321464]
  },
  {
    "id": 745,
    "name": "Restaurant «inContro» Berufsfachschulen Thun",
    "city": "Thun",
    "address": "\nMönchstrasse 30 B\n3600 Thun",
    "coordinates": [46.750442, 7.631974]
  },
  {
    "id": 746,
    "name": "Mensa Kantonsschule Limmattal",
    "city": "Urdorf",
    "address": "Kantonsschule Limmattal\nIn der Luberzen 34\n8902 Urdorf",
    "coordinates": [47.392952, 8.424049]
  },
  {
    "id": 747,
    "name": "Restaurant Campus FHNW Brugg-Windisch",
    "city": "Windisch",
    "address": "Fachhochschule Nordwestschweiz\nBahnhofstrasse 5\n5210 Windisch",
    "coordinates": [47.479584, 8.212975]
  },
  {
    "id": 748,
    "name": "Berufsfachschule BFS Winterthur",
    "city": "Winterthur",
    "address": "Tösstalstrasse 26\n8400 Winterthur",
    "coordinates": [47.4941509, 8.7407834]
  },
  {
    "id": 749,
    "name": "Mensa Kantonsschule Im Lee",
    "city": "Winterthur",
    "address": "\nRychenbergstrasse 140\n8400 Winterthur",
    "coordinates": [47.5032799, 8.7466063]
  },
  {
    "id": 750,
    "name": "Mensa Kantonsschule Rychenberg",
    "city": "Winterthur",
    "address": "\nRychenbergstrasse 108\n8400 Winterthur",
    "coordinates": [47.5032799, 8.7466063]
  },
  {
    "id": 751,
    "name": "Mensa ZAG",
    "city": "Winterthur",
    "address": "Zentrum für Ausbildung im Gesundheitswesen des Kanton Zürich\nTurbinenstrasse 5\n8400 Winterthur",
    "coordinates": [47.497581, 8.718131]
  },
  {
    "id": 752,
    "name": "Restaurant TBZ Technische Berufsschule Zürich",
    "city": "Zürich",
    "address": "\nAusstellungsstrasse 70\n8005 Zürich",
    "coordinates": [47.3810378, 8.5378737]
  },
  {
    "id": 753,
    "name": "SV (Schweiz) AG Mensa Kantonsschule Zug",
    "city": "Zug",
    "address": "\nLüssiweg 24\n6302 Zug",
    "coordinates": [47.175647, 8.5238122]
  },
  {
    "id": 754,
    "name": "Restaurant AXA Museumstrasse",
    "city": "Winterthur",
    "address": "\nMuseumstrasse 15\n8401 Winterthur",
    "coordinates": [47.5013069, 8.7328979]
  },
  {
    "id": 755,
    "name": "Restaurant Grüze",
    "city": "Winterthur",
    "address": "\nGrüzefeldstrasse 41\n8404 Winterthur",
    "coordinates": [47.4974899, 8.7463753]
  },
  {
    "id": 756,
    "name": "Culinarium St. Alban",
    "city": "Basel",
    "address": "Credit Suisse AG\nSt. Albangraben 1-3\n4051 Basel",
    "coordinates": [47.554227, 7.592692]
  },
  {
    "id": 757,
    "name": "Culinarium Time Out",
    "city": "Bern",
    "address": "AXA Winterthur\nLaupenstrasse 19\n3001 Bern",
    "coordinates": [46.946943, 7.434329]
  },
  {
    "id": 758,
    "name": "UBS Restaurant Elite",
    "city": "Zürich",
    "address": "UBS AG\nNüschelerstrasse 6\n8001 Zürich",
    "coordinates": [47.371339, 8.537535]
  },
  {
    "id": 759,
    "name": "Gewerbliche Berufsschule Chur",
    "city": "Chur",
    "address": "\nScalettastrasse 33\n7000 Chur",
    "coordinates": [46.8545581, 9.5268577]
  },
  {
    "id": 760,
    "name": "Culinarium Berner Kantonalbank",
    "city": "Liebefeld",
    "address": "BEKB/BCBE\nSchwarzenburgstrasse 160\n3097 Liebefeld",
    "coordinates": [46.930786, 7.419569]
  },
  {
    "id": 761,
    "name": "Mensa Polyterrasse Mittag",
    "city": "Zürich",
    "address": "ETH Zürich\nLeonhardstrasse 34\n8092 Zürich",
    "coordinates": [47.376726, 8.546412]
  },
  {
    "id": 762,
    "name": "Clausiusbar",
    "city": "Zürich",
    "address": "ETH Zürich\nTannenstrasse 3\n8092 Zürich",
    "coordinates": [47.377197, 8.547004]
  },
  {
    "id": 763,
    "name": "Personalrestaurant Bucher",
    "city": "Niederweningen",
    "address": "Bucher-Guyer\nMurzlenstrasse 80\n8166 Niederweningen",
    "coordinates": [47.51102, 8.367612]
  },
  {
    "id": 764,
    "name": "KV Zürich Business School",
    "city": "Zürich",
    "address": "\nLimmatstrasse 310\n8005 Zürich",
    "coordinates": [47.3869609, 8.5285851]
  },
  {
    "id": 765,
    "name": "PostGusto",
    "city": "Härkingen",
    "address": "Post CH AG\nAltgraben 5\n4620 Härkingen",
    "coordinates": [47.316076, 7.808121]
  },
  {
    "id": 766,
    "name": "RESTAURANT GIALLO",
    "city": "Frauenfeld",
    "address": "Post CH AG\nLangfeldstrasse 110\n8520 Frauenfeld",
    "coordinates": [47.565295, 8.905503]
  },
  {
    "id": 767,
    "name": "Cafeteria Westpark",
    "city": "Zürich",
    "address": "Post CH AG\nPfingstweidstrasse 60b\n8005 Zürich",
    "coordinates": [47.390578, 8.514701]
  },
  {
    "id": 768,
    "name": "Restaurant Biopark",
    "city": "Basel",
    "address": "\nMattenstrasse 24a\n4058 Basel",
    "coordinates": [47.567784, 7.605192]
  },
  {
    "id": 769,
    "name": "Restaurant Gioia",
    "city": "Bern",
    "address": "Post CH AG\nNordring 8\n3030 Bern",
    "coordinates": [46.955321, 7.447105]
  },
  {
    "id": 770,
    "name": "G-ESSbar",
    "city": "Zürich",
    "address": "\nHaldeneggsteig 4\n8092 Zürich",
    "coordinates": [47.380554, 8.545234]
  },
  {
    "id": 773,
    "name": "Wilhelm Gastronomie im FMI Gebäude der TUM Garching",
    "city": "Garching bei München",
    "address": "Boltzmannstraße 3, 85748 Garching bei München",
    "coordinates": [48.2624312, 11.6691121]
  },
  {
    "id": 774,
    "name": "Konradhofer Catering - Betriebskantine IPP",
    "city": "Garching bei München",
    "address": "Gießenbachstraße, 85748 Garching bei München",
    "coordinates": [48.2618476, 11.6720407]
  },
  {
    "id": 775,
    "name": "Hauptmensa TU Dortmund",
    "city": "Dortmund / Nordrhein-Westfalen",
    "address": "Vogelpothsweg 85, 44227 Dortmund",
    "coordinates": [51.493040772259704, 7.414687871932984]
  },
  {
    "id": 777,
    "name": "Mensa Homburg",
    "city": "Homburg / Saarland",
    "address": "Universitätsklinikum des Saarlandes, Gebäude 74",
    "coordinates": [49.304525498537664, 7.343578979167953]
  },
  {
    "id": 778,
    "name": "Cafeteria Hochschule für Musik Saar",
    "city": "Saarbrücken / Saarland",
    "address": "Bismarckstraße 1, 66111 Saarbrücken",
    "coordinates": [49.2302973, 6.99777870717347]
  },
  {
    "id": 779,
    "name": "Cafeteria HTW Göttelborn",
    "city": "Göttelborn / Saarland",
    "address": "",
    "coordinates": null
  },
  {
    "id": 780,
    "name": "Mensagarten Saarbrücken",
    "city": "Saarbrücken / Saarland",
    "address": "Campus Saarbrücken, Gebäude A1.7",
    "coordinates": null
  },
  {
    "id": 789,
    "name": "StuBistro Oettingenstraße",
    "city": "München",
    "address": "Oettingenstraße 67, München",
    "coordinates": [48.149864119259455, 11.594309806823732]
  },
  {
    "id": 795,
    "name": "Mannheim Eppelheim, Mensa DHBW",
    "city": "Eppelheim",
    "address": "Handelsstraße 13, 69214 Eppelheim",
    "coordinates": [49.408071899999996, 8.626762026254]
  },
  {
    "id": 798,
    "name": "Mensa Schlossgarten",
    "city": "Osnabrück",
    "address": "Ritterstraße 10, 49074 Osnabrück, Deutschland",
    "coordinates": [52.27040934828536, 8.045409321784975]
  },
  {
    "id": 799,
    "name": "Mensa Vechta",
    "city": "Vechta",
    "address": "Universitätsstraße 3, 49377 Vechta, Deutschland",
    "coordinates": [52.72031796232492, 8.295176625251772]
  },
  {
    "id": 800,
    "name": "Mensa Haste",
    "city": "Haste",
    "address": "Oldenburger Landstraße, 49090 Osnabrück, Deutschland",
    "coordinates": [52.30470006536927, 8.04001808166504]
  },
  {
    "id": 802,
    "name": "Mensa Uni Augsburg",
    "city": "Augsburg",
    "address": "Universitätsstraße 4, 86159 Augsburg",
    "coordinates": [48.33346, 10.898379]
  },
  {
    "id": 803,
    "name": "Mensa HS Augsburg",
    "city": "Augsburg",
    "address": "Friedberger Straße 2, 86161 Augsburg",
    "coordinates": [48.358618, 10.907243]
  },
  {
    "id": 804,
    "name": "Mensa HS Neu-Ulm",
    "city": "Neu-Ulm",
    "address": "Wileystraße 1, 89231 Neu-Ulm",
    "coordinates": [48.380452, 10.009697]
  },
  {
    "id": 805,
    "name": "Cafeteria HS Augsburg",
    "city": "Augsburg",
    "address": "An der Hochschule 1, 86161 Augsburg",
    "coordinates": [48.3561293, 10.9059509]
  },
  {
    "id": 828,
    "name": "Mensa HTW Saar Alt-Saarbrücken",
    "city": "Saarbrücken / Saarland",
    "address": "Campus Alt-Saarbrücken, Goebenstraße 40, 66117 Saarbrücken",
    "coordinates": [49.2353486, 6.9723138]
  },
  {
    "id": 829,
    "name": "Mensa HTW Saar Rotenbühl",
    "city": "Saarbrücken / Saarland",
    "address": "Gebäude B, Waldhausweg 14, 66123 Saarbrücken",
    "coordinates": [49.24363355, 7.01566541106453]
  },
  {
    "id": 830,
    "name": "Würz­burg, In­te­rims­men­sa Spra­chen­zen­trum",
    "city": "Würzburg",
    "address": "Mat­thi­as-Lexer-Weg 25, 97074 Würz­burg",
    "coordinates": [49.787876086128485, 9.971053004264833]
  },
  {
    "id": 831,
    "name": "Würz­burg, Essensausgabe Philo",
    "city": "Würzburg",
    "address": "Am Hub­land, 97074 Würz­burg",
    "coordinates": [49.78343930370019, 9.966364502906801]
  },
  {
    "id": 833,
    "name": "Mensa am Wartenberg 2",
    "city": "Eisenach",
    "address": "Am Wartenberg 2, 99817 Eisenach",
    "coordinates": [50.98338995, 10.319536438315]
  },
  {
    "id": 834,
    "name": "Cafeteria Schlüterstraße",
    "city": "Erfurt",
    "address": "Schlüterstraße 1, 99089 Erfurt",
    "coordinates": [50.98541075, 11.0243185426912]
  },
  {
    "id": 835,
    "name": "Cafeteria Leipziger Straße",
    "city": "Erfurt",
    "address": "Leipziger Straße 77, 99089 Erfurt",
    "coordinates": [50.9914735, 11.0545256069606]
  },
  {
    "id": 836,
    "name": "Mensa an der Berufsakademie",
    "city": "Gera",
    "address": "Weg der Freundschaft 4A, 07546 Gera",
    "coordinates": [50.90428995, 12.0700715455521]
  },
  {
    "id": 837,
    "name": "Cafeteria Röntgenbau",
    "city": "Ilmenau",
    "address": "Weimarer Straße 25, 98693 Ilmenau",
    "coordinates": [50.6882649, 10.9194799]
  },
  {
    "id": 838,
    "name": "Cafeteria EAH",
    "city": "Jena",
    "address": "Moritz-von-Rohr-Straße 2, 07745 Jena",
    "coordinates": [50.9188478, 11.5704278]
  },
  {
    "id": 839,
    "name": "Pasta Basta",
    "city": "Jena",
    "address": "Ernst-Abbe-Platz 5, 07743 Jena",
    "coordinates": [50.9281815, 11.5827519717057]
  },
  {
    "id": 840,
    "name": "Caféteria Uni-Hauptgebäude",
    "city": "Jena",
    "address": "Schlossgasse 1, 07743 Jena",
    "coordinates": [50.9293058, 11.5899888]
  },
  {
    "id": 841,
    "name": "Cafeteria Bibliothek",
    "city": "Jena",
    "address": "Bibliotheksplatz 2, 07743 Jena",
    "coordinates": [50.9304936, 11.58775498522]
  },
  {
    "id": 842,
    "name": "Mensa Weinberghof",
    "city": "Nordhausen",
    "address": "Weinberghof 4, 99734 Nordhausen",
    "coordinates": [51.49729755, 10.8101843516085]
  },
  {
    "id": 843,
    "name": "Mensa Blechhammer",
    "city": "Schmalkalden",
    "address": "Blechhammer 9a, 98574 Schmalkalden",
    "coordinates": [50.7183167, 10.4640081]
  },
  {
    "id": 844,
    "name": "Cafeteria Anna-Amalia-Bibliothek",
    "city": "Weimar",
    "address": "Platz der Demokratie 4, 99423 Weimar",
    "coordinates": [50.9794813, 11.3308193]
  },
  {
    "id": 845,
    "name": "Cafeteria Coudraystraße",
    "city": "Weimar",
    "address": "Coudraystraße 13, 99423 Weimar",
    "coordinates": [50.9819795, 11.3221885]
  },
  {
    "id": 846,
    "name": "Cafeteria Mensa Ehrenberg",
    "city": "Ilmenau",
    "address": "Max-Planck-Ring 1, 98693 Ilmenau, Germany",
    "coordinates": [50.68242215, 10.9337807664547]
  },
  {
    "id": 847,
    "name": "Cafeteria Zur Rosen",
    "city": "Jena",
    "address": "Johannisstraße 13, 07743 Jena",
    "coordinates": [50.9293718, 11.5847347]
  },
  {
    "id": 849,
    "name": "Mensa Süd TU Dortmund",
    "city": "Dortmund / Nordrhein-Westfalen",
    "address": "August-Schmidt-Strasse 2, 44227 Dortmund, Deutschland",
    "coordinates": [51.48389955, 7.41444941759405]
  },
  {
    "id": 850,
    "name": "Vital TU Dortmund",
    "city": "Dortmund / Nordrhein-Westfalen",
    "address": "Vogelpothsweg 85, 44227 Dortmund, Deutschland",
    "coordinates": [51.4927869362164, 7.414720058441162]
  },
  {
    "id": 851,
    "name": "Archeteria TU Dortmund",
    "city": "Dortmund / Nordrhein-Westfalen",
    "address": "August-Schmidt-Strasse 2, 44227 Dortmund, Germany",
    "coordinates": [51.48389955, 7.41444941759405]
  },
  {
    "id": 852,
    "name": "Restaurant Calla TU Dortmund",
    "city": "Dortmund / Nordrhein-Westfalen",
    "address": "Vogelpothsweg 85, 44227 Dortmund, Germany",
    "coordinates": [51.4929606136619, 7.415149211883546]
  },
  {
    "id": 853,
    "name": "food fakultät TU Dortmund",
    "city": "Dortmund / Nordrhein-Westfalen",
    "address": "Vogelpothsweg 74, 44227 Dortmund, Germany",
    "coordinates": [51.49352840069311, 7.416361570358277]
  },
  {
    "id": 854,
    "name": "Mensa Max-Ophüls-Platz",
    "city": "Dortmund / Nordrhein-Westfalen",
    "address": "Max-Ophuels-Platz 2, 44137 Dortmund, Germany",
    "coordinates": [51.49880725, 7.453349749125]
  },
  {
    "id": 855,
    "name": "Mensa Sonnenstraße",
    "city": "Dortmund / Nordrhein-Westfalen",
    "address": "Sonnenstrasse 96, 44139 Dortmund, Germany",
    "coordinates": [51.50606285, 7.45693408344336]
  },
  {
    "id": 856,
    "name": "Mensa kostBar",
    "city": "Dortmund / Nordrhein-Westfalen",
    "address": "Emil-Figge-Strasse 40A, 44227 Dortmund, Germany",
    "coordinates": [51.4943314, 7.4206827]
  },
  {
    "id": 858,
    "name": "Mensa der FernUni Hagen",
    "city": "Hagen / Nordrhein-Westfalen",
    "address": "Universitätsstrasse 31, 58097 Hagen, Germany",
    "coordinates": [51.3767823, 7.4957718]
  },
  {
    "id": 859,
    "name": "Mensa Snack it Hagen",
    "city": "Hagen / Nordrhein-Westfalen",
    "address": "Haldener Strasse 182, 58095 Hagen, Germany",
    "coordinates": [51.3662827, 7.49749]
  },
  {
    "id": 860,
    "name": "Mensa Canapé Iserlohn",
    "city": "Iserlohn / Nordrhein-Westfalen",
    "address": "Frauenstuhlweg 31, 58644 Iserlohn, Germany",
    "coordinates": [51.36790945, 7.68640121930496]
  },
  {
    "id": 861,
    "name": "Mensa da Vinci Meschede",
    "city": "Meschede / Nordrhein-Westfalen",
    "address": "Lindenstrasse 53, 59872 Meschede, Germany",
    "coordinates": [51.36195495, 8.29518090571558]
  },
  {
    "id": 862,
    "name": "Mensa Soest",
    "city": "Soest / Nordrhein-Westfalen",
    "address": "Lübecker Ring 2, 59494 Soest, Germany",
    "coordinates": [51.561606, 8.1148521]
  },
  {
    "id": 865,
    "name": "Ulm, Mensa in der Uni",
    "city": "Ulm",
    "address": "James-Franck-Ring 8, 89081 Ulm",
    "coordinates": [48.424488, 9.9571384]
  },
  {
    "id": 866,
    "name": "Ulm, Uni Bistro",
    "city": "Ulm",
    "address": "Festpunkt 025, Oberer Eselsberg, 89081 Ulm",
    "coordinates": [48.421834, 9.955425]
  },
  {
    "id": 867,
    "name": "Ulm, Cafeteria Uni West",
    "city": "Ulm",
    "address": "Uni West gegenüber der Bibliothek, 89081 Ulm",
    "coordinates": [48.4209553, 9.948925]
  },
  {
    "id": 868,
    "name": "Ulm, Hochschule Ulm Mensa",
    "city": "Ulm",
    "address": "Hochschule Ulm, Prittwitzstraße, 89075 Ulm",
    "coordinates": [48.40886075, 9.997429466452386]
  },
  {
    "id": 869,
    "name": "Ulm, WestSide Diner",
    "city": "Ulm",
    "address": "An der Westseite der Uni West vor dem Gebäude 45, 89081 Ulm",
    "coordinates": [48.4217, 9.9487]
  },
  {
    "id": 879,
    "name": "Rostock, Mensa Kantilene",
    "city": "Rostock",
    "address": "Beim St.-Katharinenstift 8, 18055 Rostock",
    "coordinates": [54.0915964, 12.1444158538776]
  },
  {
    "id": 880,
    "name": "Görlitz, MiO - Mensa im Osten",
    "city": "Görlitz / Sachsen",
    "address": "Furtstraße 1a, 02826 Görlitz",
    "coordinates": [51.148972974663046, 14.998558208027177]
  },
  {
    "id": 881,
    "name": "Technologiepark Böblingen",
    "city": "Böblingen",
    "address": "Herrenberger Str. 130, 71034 Böblingen, Germany",
    "coordinates": [48.676680406834954, 8.979895793817475]
  },
  {
    "id": 895,
    "name": "Bistro NFF",
    "city": "Braunschweig",
    "address": "Hermann-Blenk-Str. 42, 38108 Braunschweig, Deutschland",
    "coordinates": [52.3145194, 10.5428791]
  },
  {
    "id": 898,
    "name": "Mensa Salzgitter",
    "city": "Salzgitter-calbecht",
    "address": "Karl-Scharfenberg-Str. 55/57, 38229 Salzgitter-Calbecht",
    "coordinates": [52.0883582, 10.3786822]
  },
  {
    "id": 900,
    "name": "Bistro Wolfsburg",
    "city": "Wolfsburg",
    "address": "Robert-Koch-Platz 8a, 38440 Wolfsburg",
    "coordinates": [52.425938, 10.7878045]
  },
  {
    "id": 902,
    "name": "Interimsmensa Markusplatz",
    "city": "Bamberg",
    "address": "Mar­kus­platz 3, 96047 Bam­berg",
    "coordinates": [49.89571257228142, 10.883867981181485]
  },
  {
    "id": 903,
    "name": "Cafeteria Mensa 2",
    "city": "Braunschweig",
    "address": "Beethovenstr. 15, 38106 Braunschweig",
    "coordinates": [52.2801204, 10.5440898]
  },
  {
    "id": 904,
    "name": "Mensa Stralsund",
    "city": "Stralsund",
    "address": "Zur Schwedenschanze 15, 18435 Stralsund, Germany",
    "coordinates": [54.34009114601057, 13.07429293722324]
  },
  {
    "id": 911,
    "name": "StuBistro Akademiestraße",
    "city": "München",
    "address": "Akademiestraße 2, 80799 München",
    "coordinates": [48.1531426, 11.5800343322674]
  },
  {
    "id": 912,
    "name": "StuBistro Arcisstraße",
    "city": "München",
    "address": "Arcisstraße 12, 80333 München",
    "coordinates": [48.1461238, 11.5676922962502]
  },
  {
    "id": 913,
    "name": "StuBistro Martinsried",
    "city": "Martinsried",
    "address": "Großhaderner Str. 9, 82152 Planegg",
    "coordinates": [48.1104116, 11.4597934]
  },
  {
    "id": 914,
    "name": "StuBistro Oberschleißheim",
    "city": "Oberschleißheim",
    "address": "Sonnenstraße 16, 85764 Oberschleißheim",
    "coordinates": [48.2473423, 11.5482483]
  },
  {
    "id": 918,
    "name": "Gastronomie Endress+Hauser, SV Restaurant Flowtec",
    "city": "Reinach",
    "address": "Kägenstrasse 7 4153 Reinach",
    "coordinates": [47.48796745, 7.59951796430565]
  },
  {
    "id": 923,
    "name": "Horb, DHBW Stuttgart Campus Horb",
    "city": "Horb",
    "address": "Florianstraße 15, 72160 Horb",
    "coordinates": [48.445237399999996, 8.696607306560292]
  },
  {
    "id": 943,
    "name": "Mannheim, Mensa Wagon",
    "city": "Mannheim",
    "address": "Bismarckstraße 42, 68161 Mannheim",
    "coordinates": [49.4827355, 8.4674881]
  },
  {
    "id": 949,
    "name": "Limpertsberg, LML Restaurant Um Weier (Lycée Michel Lucius Université)",
    "city": "Limpertsberg (Luxembourg)",
    "address": "157 Avenue Pasteur, L-2311 Limpertsberg (Luxembourg)",
    "coordinates": [49.6249162, 6.113668999341334]
  },
  {
    "id": 950,
    "name": "Diekirch, NOSL Restaurant (Nordstadlycée)",
    "city": "Diekirch (Luxembourg)",
    "address": "1-7, rue Sauerwiss, L-9278 Diekirch (Luxembourg)",
    "coordinates": [49.8642358, 6.1612383]
  },
  {
    "id": 951,
    "name": "Diekirch, NOSL Cafeteria (Nordstadlycée)",
    "city": "Diekirch (Luxembourg)",
    "address": "6, rue Joseph Merten, L-9257 Diekirch (Luxembourg)",
    "coordinates": [49.8649999, 6.1691944]
  },
  {
    "id": 952,
    "name": "Luxembourg, Dommeldange, LAM-SD - Restaurant (Lycée des Arts et Métiers)",
    "city": "Luxembourg",
    "address": "20 Rue Nicolas Hein, L-1721 Luxembourg",
    "coordinates": [49.6356589, 6.138147]
  },
  {
    "id": 953,
    "name": "Luxembourg, Dommeldange, LAM-SD - Cafeteria (Lycée des Arts et Métiers)",
    "city": "Luxembourg",
    "address": "20 Rue Nicolas Hein, L-1721 Luxembourg",
    "coordinates": [49.6356589, 6.138147]
  },
  {
    "id": 954,
    "name": "Bertrange, LJBM - Restaurant (Lycée Josy Barthel Mamer)",
    "city": "Bertrange (Luxembourg)",
    "address": "2 Rue Gaston Thorn, L-8268 Bertrange (Luxembourg)",
    "coordinates": [49.6219633, 6.0345867]
  },
  {
    "id": 955,
    "name": "Bertrange, LJBM - Cafeteria (Lycée Josy Barthel Mamer)",
    "city": "Bertrange (Luxembourg)",
    "address": "2 Rue Gaston Thorn, L-8268 Bertrange (Luxembourg)",
    "coordinates": [49.6219633, 6.0345867]
  },
  {
    "id": 956,
    "name": "Bertrange, LJBM - Point de Vente 1 (Lycée Josy Barthel Mamer)",
    "city": "Bertrange (Luxembourg)",
    "address": "2 Rue Gaston Thorn, L-8268 Bertrange (Luxembourg)",
    "coordinates": [49.6219633, 6.0345867]
  },
  {
    "id": 957,
    "name": "Echternach, LCE Cafeteria (Lycée Classique Echternach)",
    "city": "Echternach (Luxembourg)",
    "address": "1 Rue du Pont, L-6471 Echternach (Luxembourg)",
    "coordinates": [49.8131577, 6.4233833]
  },
  {
    "id": 958,
    "name": "Echternach, LCE Grand Réfectoire (Lycée Classique Echternach)",
    "city": "Echternach (Luxembourg)",
    "address": "1 Rue du Pont, L-6471 Echternach (Luxembourg)",
    "coordinates": [49.8131577, 6.4233833]
  },
  {
    "id": 959,
    "name": "Echternach, LCE Petit Réfectoire (Lycée Classique Echternach)",
    "city": "Echternach (Luxembourg)",
    "address": "1 Rue du Pont, L-6471 Echternach (Luxembourg)",
    "coordinates": [49.8131577, 6.4233833]
  },
  {
    "id": 960,
    "name": "Luxembourg, AL Restaurant (Athénée de Luxembourg)",
    "city": "Luxembourg",
    "address": "24 Boulevard Pierre Dupong, L-1430 Luxembourg",
    "coordinates": [49.6057271, 6.1105679]
  },
  {
    "id": 961,
    "name": "Luxembourg, Forum Restaurant (Campus Geesseknäppchen)",
    "city": "Luxembourg",
    "address": "40 Boulevard Pierre Dupong, L-1430 Luxembourg",
    "coordinates": [49.6057271, 6.1105679]
  },
  {
    "id": 962,
    "name": "Luxembourg, Forum Cafétéria (Campus Geesseknäppchen)",
    "city": "Luxembourg",
    "address": "40 Boulevard Pierre Dupong, L-1430 Luxembourg",
    "coordinates": [49.6057271, 6.1105679]
  },
  {
    "id": 963,
    "name": "Luxembourg, ECG Bistro (Ecole de Commerce et de Gestion, Geesseknäppchen)",
    "city": "Luxembourg",
    "address": "21 Rue Marguerite de Brabant, L-1254 Luxembourg",
    "coordinates": [49.60282, 6.1087]
  },
  {
    "id": 964,
    "name": "Luxembourg, Forum Piscine (Campus Geesseknäppchen)",
    "city": "Luxembourg",
    "address": "40 Boulevard Pierre Dupong, L-1430 Luxembourg",
    "coordinates": [49.6057271, 6.1105679]
  },
  {
    "id": 965,
    "name": "Luxembourg, LAML Cafétéria (Lycée Aline Mayrisch, Geesseknäppchen)",
    "city": "Luxembourg",
    "address": "38 Boulevard Pierre Dupong, L-1430 Luxembourg",
    "coordinates": [49.6057271, 6.1105679]
  },
  {
    "id": 966,
    "name": "Luxembourg, LMRL Restaurant (Lycée Michel Rodange, Geesseknäppchen)",
    "city": "Luxembourg",
    "address": "30 Boulevard Pierre Dupong, L-1430 Luxembourg",
    "coordinates": [49.6057271, 6.1105679]
  },
  {
    "id": 967,
    "name": "Luxembourg, LMRL Cafétéria (Lycée Michel Rodange, Geesseknäppchen)",
    "city": "Luxembourg",
    "address": "30 Boulevard Pierre Dupong, L-1430 Luxembourg",
    "coordinates": [49.6057271, 6.1105679]
  },
  {
    "id": 968,
    "name": "Luxembourg, LRSL Restaurant (Lycée Robert Schuman)",
    "city": "Luxembourg",
    "address": "1, Boulevard Emmanuel Servais, L-2535 Luxembourg",
    "coordinates": [49.61899685, 6.126571912589233]
  },
  {
    "id": 969,
    "name": "Luxembourg, LRSL Bistro (Lycée Robert Schuman)",
    "city": "Luxembourg",
    "address": "1, Boulevard Emmanuel Servais, L-2535 Luxembourg",
    "coordinates": [49.61899685, 6.126571912589233]
  },
  {
    "id": 970,
    "name": "Esch-sur-Alzette, LGK Restaurant (Lycée Guillaume Kroll)",
    "city": "Esch-sur-Alzette (Luxembourg)",
    "address": "32 Rue Henri Koch, L-4354 Esch-sur-Alzette (Luxembourg)",
    "coordinates": [49.50984375, 5.964890211956726]
  },
  {
    "id": 971,
    "name": "Esch-sur-Alzette, LGK Cafétéria (Lycée Guillaume Kroll)",
    "city": "Esch-sur-Alzette (Luxembourg)",
    "address": "32 Rue Henri Koch, L-4354 Esch-sur-Alzette (Luxembourg)",
    "coordinates": [49.50984375, 5.964890211956726]
  },
  {
    "id": 972,
    "name": "Luxembourg, LTPS Restaurant Mercator (Lycée Technique pour Professions de Santé)",
    "city": "Luxembourg",
    "address": "112, route d'Arlon, L-1150 Luxembourg",
    "coordinates": [49.6329702, 6.019383050000004]
  },
  {
    "id": 973,
    "name": "Luxembourg, LTPS Cafétéria Barblé Siège (Lycée Technique pour Professions de Santé)",
    "city": "Luxembourg",
    "address": "27, rue Barblé, L-1210 Luxembourg",
    "coordinates": [49.61924, 6.0994]
  },
  {
    "id": 974,
    "name": "Ettelbruck, LTPS Restaurant Ettelbruck (Lycée Technique pour Professions de Santé)",
    "city": "Ettelbruck (Luxembourg)",
    "address": "1, Impasse av. Salentiny, L-9080 Ettelbruck (Luxembourg)",
    "coordinates": [49.852385, 6.097723]
  },
  {
    "id": 975,
    "name": "Strassen, CDM Restaurant (Centre pour le développement moteur)",
    "city": "Strassen (Luxembourg)",
    "address": "1 Place Thomas Edison, L-1525 Strassen (Luxembourg)",
    "coordinates": [49.62084195, 6.099296074169596]
  },
  {
    "id": 976,
    "name": "Luxembourg, LTCP Restaurant (Lycée Technique du Centre)",
    "city": "Luxembourg",
    "address": "106 Avenue Pasteur, L-2309 Luxembourg",
    "coordinates": [49.6246321, 6.1165120166467535]
  },
  {
    "id": 977,
    "name": "Luxembourg, LTCK Restaurant (Lycée Technique du Centre Kirchberg)",
    "city": "Luxembourg",
    "address": "6 Rue Richard Coudenhove-Kalergi, L-1359 Luxembourg",
    "coordinates": [49.626426300000006, 6.159249152496307]
  },
  {
    "id": 979,
    "name": "Luxembourg, LTCP Point de Vente 2 (Lycée Technique du Centre)",
    "city": "Luxembourg",
    "address": "106 Avenue Pasteur, L-2309 Luxembourg",
    "coordinates": [49.6246321, 6.1165120166467535]
  },
  {
    "id": 980,
    "name": "Luxembourg, LTCP Point de Vente 3 (Lycée Technique du Centre)",
    "city": "Luxembourg",
    "address": "106 Avenue Pasteur, L-2309 Luxembourg",
    "coordinates": [49.6246321, 6.1165120166467535]
  },
  {
    "id": 981,
    "name": "Luxembourg, INL Restaurant (Institut National des Langues)",
    "city": "Luxembourg",
    "address": "21 Boulevard de la Foire, L-1528 Luxembourg",
    "coordinates": [49.616192, 6.1242164]
  },
  {
    "id": 982,
    "name": "Esch-sur-Alzette, CNFPC Esch Restaurant (Centre National de Formation Professionnelle Continue)",
    "city": "Esch-sur-Alzette (Luxembourg)",
    "address": "22 Rue Henri Koch, L-4354 Esch-sur-Alzette (Luxembourg)",
    "coordinates": [49.5091262, 5.960871092651937]
  },
  {
    "id": 983,
    "name": "Differdange, LTMA Restaurant Jenker (Lycée Technique Mathias Adam)",
    "city": "Differdange (Luxembourg)",
    "address": "9 Rue Pierre Frieden, L-4560 Differdange (Luxembourg)",
    "coordinates": [49.5176678, 5.9017512]
  },
  {
    "id": 984,
    "name": "Diekirch, LCD-NB Restaurant (Lycée classique de Diekirch Nouveau Bâtiment)",
    "city": "Diekirch (Luxembourg)",
    "address": "rue Joseph Merten, L-9257 Diekirch (Luxembourg)",
    "coordinates": [49.8649999, 6.1691944]
  },
  {
    "id": 985,
    "name": "Diekirch, LCD-NB Cafeteria (Lycée classique de Diekirch Nouveau Bâtiment)",
    "city": "Diekirch (Luxembourg)",
    "address": "rue Joseph Merten, L-9257 Diekirch (Luxembourg)",
    "coordinates": [49.8649999, 6.1691944]
  },
  {
    "id": 986,
    "name": "Diekirch, LCD-AB Restaurant (Lycée classique de Diekirch Ancien Bâtiment)",
    "city": "Diekirch (Luxembourg)",
    "address": "32, avenue de la Gare, L-9233 Diekirch (Luxembourg)",
    "coordinates": [49.8658597, 6.15609512368421]
  },
  {
    "id": 987,
    "name": "Esch-sur-Alzette, LGE Restaurant (Lycée de Garçons Esch-sur-Alzette)",
    "city": "Esch-sur-Alzette (Luxembourg)",
    "address": "71, rue du Fossé, L-4123 Esch-sur-Alzette (Luxembourg)",
    "coordinates": [49.4970242, 5.9806368]
  },
  {
    "id": 988,
    "name": "Esch-sur-Alzette, LGE Cafeteria (Lycée de Garçons Esch-sur-Alzette)",
    "city": "Esch-sur-Alzette (Luxembourg)",
    "address": "71, rue du Fossé, L-4123 Esch-sur-Alzette (Luxembourg)",
    "coordinates": [49.4970242, 5.9806368]
  },
  {
    "id": 989,
    "name": "Luxembourg, LGL Restaurant (Lycée de Garçons)",
    "city": "Luxembourg",
    "address": "Place Auguste Laurent, L-1921 Luxembourg",
    "coordinates": [49.62029565, 6.121881337053564]
  },
  {
    "id": 990,
    "name": "Luxembourg, LGL Cafeteria (Lycée de Garçons)",
    "city": "Luxembourg",
    "address": "Place Auguste Laurent, L-1921 Luxembourg",
    "coordinates": [49.62029565, 6.121881337053564]
  },
  {
    "id": 991,
    "name": "Esch-sur-Alzette, LHCE Restaurant (Lycée Hubert Clément)",
    "city": "Esch-sur-Alzette (Luxembourg)",
    "address": "2 rue Général Patton, L-4277 Esch-sur-Alzette (Luxembourg)",
    "coordinates": [49.5028, 5.97738]
  },
  {
    "id": 992,
    "name": "Luxembourg, Limpertsberg, LAM-SL Restaurant (Lycée des Arts et Métiers)",
    "city": "Luxembourg",
    "address": "19 rue Guillaume Schneider, L-2522 Luxembourg",
    "coordinates": [49.622400049999996, 6.12581201329745]
  },
  {
    "id": 993,
    "name": "Luxembourg, Limpertsberg, LAM-SL Cafeteria (Lycée des Arts et Métiers)",
    "city": "Luxembourg",
    "address": "19 rue Guillaume Schneider, L-2522 Luxembourg",
    "coordinates": [49.622400049999996, 6.12581201329745]
  },
  {
    "id": 994,
    "name": "Ettelbruck, LTETT Restaurant (Lycée Technique)",
    "city": "Ettelbruck (Luxembourg)",
    "address": "71 Avenue Lucien Salentiny, L-9080 Ettelbruck (Luxembourg)",
    "coordinates": [49.8503597, 6.0990609]
  },
  {
    "id": 995,
    "name": "Grevenmacher, MLG Restaurant (Maacher Lycée)",
    "city": "Grevenmacher (Luxembourg)",
    "address": "18 Rue de Muenschecker, L-6760 Grevenmacher (Luxembourg)",
    "coordinates": [49.6887231, 6.4396894]
  },
  {
    "id": 996,
    "name": "Grevenmacher, MLG Cafétéria (Maacher Lycée)",
    "city": "Grevenmacher (Luxembourg)",
    "address": "18 Rue de Muenschecker, L-6760 Grevenmacher (Luxembourg)",
    "coordinates": [49.6887231, 6.4396894]
  },
  {
    "id": 997,
    "name": "Dudelange, LNB Restaurant (Lycée Nic-Biever)",
    "city": "Dudelange (Luxembourg)",
    "address": "28, rue du Parc, L-3542 Dudelange (Luxembourg)",
    "coordinates": [49.4861809, 6.0895707]
  },
  {
    "id": 998,
    "name": "Dudelange, LNB Cafeteria (Lycée Nic Biever)",
    "city": "Dudelange (Luxembourg)",
    "address": "28, rue du Parc, L-3542 Dudelange (Luxembourg)",
    "coordinates": [49.4861809, 6.0895707]
  },
  {
    "id": 1000,
    "name": "Ettelbrück, LTA Cafétéria (Lycée Technique Agricole)",
    "city": "Ettelbrück (Luxembourg)",
    "address": "72, av. Salentiny, L-9080 Ettelbrück (Luxembourg)",
    "coordinates": [49.851005, 6.098875]
  },
  {
    "id": 1001,
    "name": "Wiltz, LN Restaurant (Lycée du Nord)",
    "city": "Wiltz (Luxembourg)",
    "address": "19, rue Général Patton, L-9551 Wiltz (Luxembourg)",
    "coordinates": [49.964007, 5.92685]
  },
  {
    "id": 1002,
    "name": "Wiltz, LN Cafétéria (Lycée du Nord)",
    "city": "Wiltz (Luxembourg)",
    "address": "19, rue Général Patton, L-9551 Wiltz (Luxembourg)",
    "coordinates": [49.963848, 5.926689]
  },
  {
    "id": 1003,
    "name": "Ettelbruck Annexe Warken, LTETT-A Restaurant (Lycée Technique)",
    "city": "Ettelbruck (Luxembourg)",
    "address": "79 Rue de Welscheid, L-9090 Ettelbruck (Luxembourg)",
    "coordinates": [49.8630067, 6.0821024]
  },
  {
    "id": 1004,
    "name": "Diekirch, LCD-AB Cafétéria (Lycée classique de Diekirch Ancien Bâtiment)",
    "city": "Diekirch (Luxembourg)",
    "address": "32, avenue de la Gare, L-9233 Diekirch (Luxembourg)",
    "coordinates": [49.8658597, 6.15609512368421]
  },
  {
    "id": 1005,
    "name": "Esch-sur-Alzette, LTL Restaurant (Lycée Technique de Lallange)",
    "city": "Esch-sur-Alzette (Luxembourg)",
    "address": "Boulevard Hubert Clément, L-4064 Esch-sur-Alzette (Luxembourg)",
    "coordinates": [49.5102823, 5.9854903]
  },
  {
    "id": 1006,
    "name": "Esch-sur-Alzette, LTL Caféteria (Lycée Technique de Lallange)",
    "city": "Esch-sur-Alzette (Luxembourg)",
    "address": "Boulevard Hubert Clément, L-4064 Esch-sur-Alzette (Luxembourg)",
    "coordinates": [49.5102823, 5.9854903]
  },
  {
    "id": 1007,
    "name": "Redange, ALR Restaurant (Atert Lycée)",
    "city": "Redange (Luxembourg)",
    "address": "1 Rue du Lycée, L-8508 Redange (Luxembourg)",
    "coordinates": [49.770372, 5.8971149]
  },
  {
    "id": 1008,
    "name": "Redange, ALR Cafétéria (Atert Lycée)",
    "city": "Redange (Luxembourg)",
    "address": "1 Rue du Lycée, L-8508 Redange (Luxembourg)",
    "coordinates": [49.770372, 5.8971149]
  },
  {
    "id": 1009,
    "name": "Redange, ALR Internat (Atert Lycée)",
    "city": "Redange (Luxembourg)",
    "address": "1 Rue du Lycée, L-8508 Redange (Luxembourg)",
    "coordinates": [49.770372, 5.8971149]
  },
  {
    "id": 1010,
    "name": "Luxembourg, Sportlycée INS Restaurant (Institut National des Sports)",
    "city": "Luxembourg",
    "address": "66, rue de Trèves, L-2630 Luxembourg",
    "coordinates": [49.6109685, 6.146372219529551]
  },
  {
    "id": 1011,
    "name": "Luxembourg, Sportlycée INS Cafétéria (Institut National des Sports)",
    "city": "Luxembourg",
    "address": "66, rue de Trèves, L-2630 Luxembourg",
    "coordinates": [49.6109685, 6.146372219529551]
  },
  {
    "id": 1012,
    "name": "Luxembourg, Sportlycée - Internat (Institut National des Sports)",
    "city": "Luxembourg",
    "address": "66, rue de Trèves, L-2630 Luxembourg",
    "coordinates": [49.6109685, 6.146372219529551]
  },
  {
    "id": 1013,
    "name": "Dudelange, LNB Annexe Alliance (Lycée Technique Nic Biever)",
    "city": "Dudelange (Luxembourg)",
    "address": "Rue Reiteschkopp, L-3526 Dudelange (Luxembourg)",
    "coordinates": [49.4718472, 6.0739817]
  },
  {
    "id": 1014,
    "name": "Lamadelaine, LTMA Restaurant (Lycée Technique Mathias Adam)",
    "city": "Lamadelaine (Luxembourg)",
    "address": "Avenue de l'Europe, L-4802 Lamadelaine (Luxembourg)",
    "coordinates": [49.5548187, 5.8541692]
  },
  {
    "id": 1015,
    "name": "Luxembourg, Eis Schoul Restaurant",
    "city": "Luxembourg",
    "address": "47 Rue des Maraîchers, L-2124 Luxembourg",
    "coordinates": [49.6273489, 6.146209781205522]
  },
  {
    "id": 1016,
    "name": "Mersch, LCD-ME Restaurant (Lycée classique de Diekirch Bâtiment de Mersch)",
    "city": "Mersch (Luxembourg)",
    "address": "square Princesse Marie-Astrid, L-7523 Mersch (Luxembourg)",
    "coordinates": [49.74909, 6.10189]
  },
  {
    "id": 1017,
    "name": "Strassen, CL Restaurant Administration (Centre de Logopédie)",
    "city": "Strassen (Luxembourg)",
    "address": "4 Place Thomas Edison, L-1483 Strassen (Luxembourg)",
    "coordinates": [49.62203275, 6.099335360226437]
  },
  {
    "id": 1018,
    "name": "Bertrange, CDV Restaurant (Centre pour le Développement des competétences relatives à la Vue)",
    "city": "Bertrange (Luxembourg)",
    "address": "17a, route de Longwy, L-8080 Bertrange (Luxembourg)",
    "coordinates": [49.6026732, 6.0751557859436875]
  },
  {
    "id": 1019,
    "name": "Belvaux, LBV Restaurant (Lycée Bel-Val)",
    "city": "Belvaux (Luxembourg)",
    "address": "100 Avenue du Blues, L-4368 Belvaux (Luxembourg)",
    "coordinates": [49.5031907, 5.9414229]
  },
  {
    "id": 1020,
    "name": "Belvaux, LBV Cafétéria (Lycée Bel-Val)",
    "city": "Belvaux (Luxembourg)",
    "address": "100 Avenue du Blues, L-4368 Belvaux (Luxembourg)",
    "coordinates": [49.5031907, 5.9414229]
  },
  {
    "id": 1021,
    "name": "Belvaux, LBV Foodtruck (Lycée Bel-Val)",
    "city": "Belvaux (Luxembourg)",
    "address": "100 Avenue du Blues, L-4368 Belvaux (Luxembourg)",
    "coordinates": [49.5031907, 5.9414229]
  },
  {
    "id": 1022,
    "name": "Esch-sur-Alzette, LHCE Cafeteria (Lycée Hubert Clément)",
    "city": "Esch-sur-Alzette (Luxembourg)",
    "address": "2 rue Général Patton, L-4277 Esch-sur-Alzette (Luxembourg)",
    "coordinates": [49.50296, 5.97787]
  },
  {
    "id": 1023,
    "name": "Lamadelaine, LTMA Cafétéria (Lycée Technique Mathias Adam)",
    "city": "Lamadelaine (Luxembourg)",
    "address": "Avenue de l'Europe, L-4802 Lamadelaine (Luxembourg)",
    "coordinates": [49.5548187, 5.8541692]
  },
  {
    "id": 1024,
    "name": "Ettelbruck, LTETT Cafétéria (Lycée Technique)",
    "city": "Ettelbruck (Luxembourg)",
    "address": "71 Avenue Lucien Salentiny, L-9080 Ettelbruck (Luxembourg)",
    "coordinates": [49.8503597, 6.0990609]
  },
  {
    "id": 1026,
    "name": "Leudelange, IEAP Restaurant (Institut pour enfants autistes et psychotiques)",
    "city": "Leudelange (Luxembourg)",
    "address": "15, rue de Cessange, L-3347 Leudelange (Luxembourg)",
    "coordinates": [49.5685859, 6.066291432388178]
  },
  {
    "id": 1028,
    "name": "Bonnevoie, CDI Restaurant (Centre pour le développement intellectuel)",
    "city": "Bonnevoie/Luxembourg",
    "address": " L-1338 Bonnevoie/Luxembourg",
    "coordinates": [49.59725085, 6.144884432204399]
  },
  {
    "id": 1029,
    "name": "Luxembourg, CDI Restaurant Cessange (Centre pour le développement intellectuel)",
    "city": "Luxembourg",
    "address": " L-1471 Luxembourg",
    "coordinates": [49.6112768, 6.129799]
  }
]
